{
"type": "FeatureCollection",
"name": "osm_places_v2",
"crs": { "type": "name", "properties": { "name": "urn:ogc:def:crs:OGC:1.3:CRS84" } },
"features": [
{ "type": "Feature", "properties": { "element": "node", "id": 49474611, "name": "Caisse Populaire Desjardins", "amenity": "bank", "Category": "Financial", "adresse_geopy": "Caisse Populaire Desjardins, Rue de l'Université, Cité-Universitaire, Sainte-Foy–Sillery–Cap-Rouge, Québec, Agglomération de Québec, Capitale-Nationale, Québec, G1V 0B1, Canada", "geopy_name": "Caisse Populaire Desjardins" }, "geometry": { "type": "Point", "coordinates": [ -71.26978250000117, 46.779202100002813 ] } },
{ "type": "Feature", "properties": { "element": "node", "id": 265847671, "name": "La Roulotte du Boulevard", "amenity": "fast_food", "Category": "Food", "adresse_geopy": "La Roulotte du Boulevard, Avenue du Bourg-Royal, Giffard, Vieux-Moulin, Beauport, Québec, Agglomération de Québec, Capitale-Nationale, Québec, G1C 5R9, Canada", "geopy_name": "La Roulotte du Boulevard" }, "geometry": { "type": "Point", "coordinates": [ -71.216026600001157, 46.854812000002823 ] } },
{ "type": "Feature", "properties": { "element": "node", "id": 275074044, "name": "Petro-Canada", "amenity": "fuel", "Category": "Transport", "adresse_geopy": "Petro-Canada, Boulevard du Lac, Notre-Dame-des-Laurentides, Charlesbourg, Québec, Agglomération de Québec, Capitale-Nationale, Québec, G2M 0C2, Canada", "geopy_name": "Petro-Canada" }, "geometry": { "type": "Point", "coordinates": [ -71.319235800001152, 46.916685100002816 ] } },
{ "type": "Feature", "properties": { "element": "node", "id": 275074469, "name": "EKO", "amenity": "fuel", "Category": "Transport", "adresse_geopy": "EKO, 65, Boulevard Pierre-Bertrand, Saint-Joseph, Neufchâtel-Est–Lebourgneuf, Les Rivières, Québec, Agglomération de Québec, Capitale-Nationale, Québec, G2K 1B4, Canada", "geopy_name": "EKO" }, "geometry": { "type": "Point", "coordinates": [ -71.294886300001153, 46.848823100002797 ] } },
{ "type": "Feature", "properties": { "element": "node", "id": 277667516, "name": "Irving", "amenity": "fuel", "Category": "Transport", "adresse_geopy": "Irving, 750, Boulevard Charest Ouest, Saint-Sauveur, La Cité-Limoilou, Québec, Agglomération de Québec, Capitale-Nationale, Québec, G1N 2M1, Canada", "geopy_name": "Irving" }, "geometry": { "type": "Point", "coordinates": [ -71.243915700001168, 46.80468120000279 ] } },
{ "type": "Feature", "properties": { "element": "node", "id": 277667672, "name": "Canadian Tire Essence+", "amenity": "fuel", "Category": "Transport", "adresse_geopy": "Canadian Tire Essence+, Avenue d'Estimauville, Maizerets, La Cité-Limoilou, Québec, Agglomération de Québec, Capitale-Nationale, Québec, G1E 2V2, Canada", "geopy_name": "Canadian Tire Essence+" }, "geometry": { "type": "Point", "coordinates": [ -71.214710800001143, 46.844732100002815 ] } },
{ "type": "Feature", "properties": { "element": "node", "id": 291667428, "name": "Subway", "amenity": "fast_food", "Category": "Food", "adresse_geopy": "Subway, 411, Boulevard Sainte-Anne, Beauport, Vieux-Bourg, Beauport, Québec, Agglomération de Québec, Capitale-Nationale, Québec, G1E 3L1, Canada", "geopy_name": "Subway" }, "geometry": { "type": "Point", "coordinates": [ -71.196919400001136, 46.853265400002812 ] } },
{ "type": "Feature", "properties": { "element": "node", "id": 291667452, "name": "Chez Cora", "amenity": "restaurant", "Category": "Food", "adresse_geopy": "Chez Cora, Boulevard des Chutes, Beauport, Vieux-Bourg, Beauport, Québec, Agglomération de Québec, Capitale-Nationale, Québec, G1E 3L1, Canada", "geopy_name": "Chez Cora" }, "geometry": { "type": "Point", "coordinates": [ -71.196422800001145, 46.85347830000282 ] } },
{ "type": "Feature", "properties": { "element": "node", "id": 291667477, "name": "McDonald's", "amenity": "fast_food", "Category": "Food", "adresse_geopy": "McDonald's, Boulevard Sainte-Anne, Beauport, Vieux-Bourg, Beauport, Québec, Agglomération de Québec, Capitale-Nationale, Québec, G1E 3L1, Canada", "geopy_name": "McDonald's" }, "geometry": { "type": "Point", "coordinates": [ -71.195517700001133, 46.853673100002794 ] } },
{ "type": "Feature", "properties": { "element": "node", "id": 291667489, "name": "AshTon", "amenity": "fast_food", "Category": "Food", "adresse_geopy": "AshTon, Boulevard Sainte-Anne, Montmorency, Vieux-Bourg, Beauport, Québec, Agglomération de Québec, Capitale-Nationale, Québec, G1C 2H8, Canada", "geopy_name": "AshTon" }, "geometry": { "type": "Point", "coordinates": [ -71.194402400001152, 46.853910000002791 ] } },
{ "type": "Feature", "properties": { "element": "node", "id": 291667527, "name": "Tim Hortons", "amenity": "cafe", "Category": "Food", "adresse_geopy": "Tim Hortons, Boulevard Sainte-Anne, Beauport, Vieux-Bourg, Beauport, Québec, Agglomération de Québec, Capitale-Nationale, Québec, G1E 3L1, Canada", "geopy_name": "Tim Hortons" }, "geometry": { "type": "Point", "coordinates": [ -71.198526800001133, 46.852597300002813 ] } },
{ "type": "Feature", "properties": { "element": "node", "id": 292944273, "name": "Irving", "amenity": "fuel", "Category": "Transport", "adresse_geopy": "Irving, Boulevard Wilfrid-Hamel, Les Saules, Duberger–Les Saules, Les Rivières, Québec, Agglomération de Québec, Capitale-Nationale, Québec, G1P 2J4, Canada", "geopy_name": "Irving" }, "geometry": { "type": "Point", "coordinates": [ -71.315953200001161, 46.806024100002823 ] } },
{ "type": "Feature", "properties": { "element": "node", "id": 295803248, "name": "Normandin", "amenity": "restaurant", "Category": "Food", "adresse_geopy": "Normandin, Boulevard Pie-XI Nord, Val-Bélair, La Haute-Saint-Charles, Québec, Agglomération de Québec, Capitale-Nationale, Québec, G3K 2S6, Canada", "geopy_name": "Normandin" }, "geometry": { "type": "Point", "coordinates": [ -71.415311300001164, 46.855313900002805 ] } },
{ "type": "Feature", "properties": { "element": "node", "id": 300996528, "name": "Bibliothèque Chrystine-Brouillet", "amenity": "library", "Category": "Public Services", "adresse_geopy": "Bibliothèque Chrystine-Brouillet, Boulevard Valcartier, Quartier de l'Hôpital, Loretteville, La Haute-Saint-Charles, Québec, Agglomération de Québec, Capitale-Nationale, Québec, G2A 2M4, Canada", "geopy_name": "Bibliothèque Chrystine-Brouillet" }, "geometry": { "type": "Point", "coordinates": [ -71.360033400001171, 46.852641900002801 ] } },
{ "type": "Feature", "properties": { "element": "node", "id": 300998288, "name": "Ultramar", "amenity": "fuel", "Category": "Transport", "adresse_geopy": "Ultramar, Avenue Lapierre, Saint-Émile, La Haute-Saint-Charles, Québec, Agglomération de Québec, Capitale-Nationale, Québec, G3E 1H8, Canada", "geopy_name": "Ultramar" }, "geometry": { "type": "Point", "coordinates": [ -71.330562600001144, 46.863467800002809 ] } },
{ "type": "Feature", "properties": { "element": "node", "id": 300998432, "name": "McDonald's", "amenity": "fast_food", "Category": "Food", "adresse_geopy": "McDonald's, 1154, Rue de la Faune, Saint-Émile, La Haute-Saint-Charles, Québec, Agglomération de Québec, Capitale-Nationale, Québec, G3E 1T2, Canada", "geopy_name": "McDonald's" }, "geometry": { "type": "Point", "coordinates": [ -71.324616800001166, 46.877238800002807 ] } },
{ "type": "Feature", "properties": { "element": "node", "id": 300998490, "name": "Bureau de poste", "amenity": "post_office", "Category": "Public Services", "adresse_geopy": "Bureau de poste, 1200, Rue de la Faune, Saint-Émile, La Haute-Saint-Charles, Québec, Agglomération de Québec, Capitale-Nationale, Québec, G3E 1A0, Canada", "geopy_name": "Bureau de poste" }, "geometry": { "type": "Point", "coordinates": [ -71.325530000001152, 46.877046900002803 ] } },
{ "type": "Feature", "properties": { "element": "node", "id": 300998499, "name": "Desjardins", "amenity": "bank", "Category": "Financial", "adresse_geopy": "Desjardins, Rue de la Faune, Saint-Émile, La Haute-Saint-Charles, Québec, Agglomération de Québec, Capitale-Nationale, Québec, G3E 0C7, Canada", "geopy_name": "Desjardins" }, "geometry": { "type": "Point", "coordinates": [ -71.326376700001148, 46.876435100002823 ] } },
{ "type": "Feature", "properties": { "element": "node", "id": 303684733, "name": "Petro-Canada", "amenity": "fuel", "Category": "Transport", "adresse_geopy": "Petro-Canada, Rue de Lorraine, Orsainville, Charlesbourg, Québec, Agglomération de Québec, Capitale-Nationale, Québec, G1G 4E1, Canada", "geopy_name": "Petro-Canada" }, "geometry": { "type": "Point", "coordinates": [ -71.277662200001146, 46.871295500002802 ] } },
{ "type": "Feature", "properties": { "element": "node", "id": 303684734, "name": "Chez Ashton", "amenity": "fast_food", "Category": "Food", "adresse_geopy": "Chez Ashton, 9480, Boulevard Henri-Bourassa, Place Cloutier, Des Jésuites, Charlesbourg, Québec, Agglomération de Québec, Capitale-Nationale, Québec, G1G 4E1, Canada", "geopy_name": "Chez Ashton" }, "geometry": { "type": "Point", "coordinates": [ -71.277109100001155, 46.870769600002816 ] } },
{ "type": "Feature", "properties": { "element": "node", "id": 303684735, "name": "Esso", "amenity": "fuel", "Category": "Transport", "adresse_geopy": "Esso, Boulevard Henri-Bourassa, Place Cloutier, Trait-Carré, Charlesbourg, Québec, Agglomération de Québec, Capitale-Nationale, Québec, G1G 4E1, Canada", "geopy_name": "Esso" }, "geometry": { "type": "Point", "coordinates": [ -71.277669200001171, 46.870364900002791 ] } },
{ "type": "Feature", "properties": { "element": "node", "id": 303684736, "name": "Tim Hortons", "amenity": "cafe", "Category": "Food", "adresse_geopy": "Tim Hortons, Boulevard Jean-Talon Ouest, Orsainville, Charlesbourg, Québec, Agglomération de Québec, Capitale-Nationale, Québec, G1G 2G7, Canada", "geopy_name": "Tim Hortons" }, "geometry": { "type": "Point", "coordinates": [ -71.278332500001142, 46.871001500002812 ] } },
{ "type": "Feature", "properties": { "element": "node", "id": 304343462, "name": "Ultramar", "amenity": "fuel", "Category": "Transport", "adresse_geopy": "Ultramar, Rue de la Faune, Saint-Émile, La Haute-Saint-Charles, Québec, Agglomération de Québec, Capitale-Nationale, Québec, G3E 1H4, Canada", "geopy_name": "Ultramar" }, "geometry": { "type": "Point", "coordinates": [ -71.350025700001169, 46.86567080000281 ] } },
{ "type": "Feature", "properties": { "element": "node", "id": 304420845, "name": "Bibliothèque Aliette-Marchand", "amenity": "library", "Category": "Public Services", "adresse_geopy": "Bibliothèque Aliette-Marchand, 243, Boulevard Pierre-Bertrand, Vanier, Les Rivières, Québec, Agglomération de Québec, Capitale-Nationale, Québec, G1M 2C7, Canada", "geopy_name": "Bibliothèque Aliette-Marchand" }, "geometry": { "type": "Point", "coordinates": [ -71.263522600001153, 46.8133318000028 ] } },
{ "type": "Feature", "properties": { "element": "node", "id": 306529416, "name": "Centre du Nouvel-Horizon", "amenity": "school", "Category": "Education", "adresse_geopy": "Centre du Nouvel-Horizon, Boulevard Monseigneur-Gauthier, Giffard, Vieux-Moulin, Beauport, Québec, Agglomération de Québec, Capitale-Nationale, Québec, G1E 1W1, Canada", "geopy_name": "Centre du Nouvel-Horizon" }, "geometry": { "type": "Point", "coordinates": [ -71.209167900001134, 46.850764000002798 ] } },
{ "type": "Feature", "properties": { "element": "node", "id": 307886335, "name": "Uniprix", "amenity": "pharmacy", "Category": "Health", "adresse_geopy": "Uniprix, 1150, Boulevard Lebourgneuf, Lebourgneuf, Neufchâtel-Est–Lebourgneuf, Les Rivières, Québec, Agglomération de Québec, Capitale-Nationale, Québec, G2K 0A9, Canada", "geopy_name": "Uniprix" }, "geometry": { "type": "Point", "coordinates": [ -71.291606000001167, 46.836650500002797 ] } },
{ "type": "Feature", "properties": { "element": "node", "id": 309303442, "name": "Eko", "amenity": "fuel", "Category": "Transport", "adresse_geopy": "Eko, Boulevard Henri-Bourassa, Orsainville, Charlesbourg, Québec, Agglomération de Québec, Capitale-Nationale, Québec, G1G 2G7, Canada", "geopy_name": "Eko" }, "geometry": { "type": "Point", "coordinates": [ -71.282954100001149, 46.87700090000282 ] } },
{ "type": "Feature", "properties": { "element": "node", "id": 309303443, "name": "Irving", "amenity": "fuel", "Category": "Transport", "adresse_geopy": "Irving, Boulevard Henri-Bourassa, Orsainville, Charlesbourg, Québec, Agglomération de Québec, Capitale-Nationale, Québec, G1G 1R9, Canada", "geopy_name": "Irving" }, "geometry": { "type": "Point", "coordinates": [ -71.286200100001153, 46.879604800002802 ] } },
{ "type": "Feature", "properties": { "element": "node", "id": 309566711, "name": "Esso", "amenity": "fuel", "Category": "Transport", "adresse_geopy": "Esso, Boulevard du Lac, Notre-Dame-des-Laurentides, Charlesbourg, Québec, Agglomération de Québec, Capitale-Nationale, Québec, G2N 1P4, Canada", "geopy_name": "Esso" }, "geometry": { "type": "Point", "coordinates": [ -71.318897800001153, 46.90619020000279 ] } },
{ "type": "Feature", "properties": { "element": "node", "id": 319439891, "name": "Saint-Jérome-de-l'Auvergne", "amenity": "place_of_worship", "Category": "Religious", "adresse_geopy": "Saint-Jérome-de-l'Auvergne, 65e Rue Est, L'Auvergne, Des Jésuites, Charlesbourg, Québec, Agglomération de Québec, Capitale-Nationale, Québec, G1H 6H2, Canada", "geopy_name": "Saint-Jérome-de-l'Auvergne" }, "geometry": { "type": "Point", "coordinates": [ -71.25512880000116, 46.855018100002809 ] } },
{ "type": "Feature", "properties": { "element": "node", "id": 321314982, "name": "Proxim", "amenity": "pharmacy", "Category": "Health", "adresse_geopy": "Proxim, 1514, Rue de la Faune, Saint-Émile, La Haute-Saint-Charles, Québec, Agglomération de Québec, Capitale-Nationale, Québec, G3E 1L2, Canada", "geopy_name": "Proxim" }, "geometry": { "type": "Point", "coordinates": [ -71.329810200001148, 46.874694200002814 ] } },
{ "type": "Feature", "properties": { "element": "node", "id": 321317989, "name": "Subway", "amenity": "fast_food", "Category": "Food", "adresse_geopy": "Subway, 1972, Rue de la Faune, Saint-Émile, La Haute-Saint-Charles, Québec, Agglomération de Québec, Capitale-Nationale, Québec, G3E 1L5, Canada", "geopy_name": "Subway" }, "geometry": { "type": "Point", "coordinates": [ -71.333317100001139, 46.873026300002806 ] } },
{ "type": "Feature", "properties": { "element": "node", "id": 345874824, "name": "Desjardins", "amenity": "bank", "Category": "Financial", "adresse_geopy": "Desjardins, 900, Avenue des Érables, Montcalm, La Cité-Limoilou, Québec, Agglomération de Québec, Capitale-Nationale, Québec, G1R 2M7, Canada", "geopy_name": "Desjardins" }, "geometry": { "type": "Point", "coordinates": [ -71.231127300001148, 46.803453500002817 ] } },
{ "type": "Feature", "properties": { "element": "node", "id": 345875846, "name": "Les Missionaires d'Afrique “Pères Blancs”", "amenity": "place_of_worship", "Category": "Religious", "adresse_geopy": "Les Missionaires d'Afrique “Pères Blancs”, 180, Chemin Sainte-Foy, Montcalm, La Cité-Limoilou, Québec, Agglomération de Québec, Capitale-Nationale, Québec, G1R 5T6, Canada", "geopy_name": "Les Missionaires d'Afrique “Pères Blancs”" }, "geometry": { "type": "Point", "coordinates": [ -71.230229600001124, 46.805267600002836 ] } },
{ "type": "Feature", "properties": { "element": "node", "id": 345882074, "name": "Quoi?", "amenity": "cafe", "Category": "Food", "adresse_geopy": "Quoi?, Côte De Salaberry, Saint-Jean-Baptiste, La Cité-Limoilou, Québec, Agglomération de Québec, Capitale-Nationale, Québec, G1K 5L5, Canada", "geopy_name": "Quoi?" }, "geometry": { "type": "Point", "coordinates": [ -71.227548900001153, 46.806755300002813 ] } },
{ "type": "Feature", "properties": { "element": "node", "id": 345883007, "name": "Pizza Hut", "amenity": "restaurant", "Category": "Food", "adresse_geopy": "Pizza Hut, 30, Rue Saint-Jean, Saint-Jean-Baptiste, La Cité-Limoilou, Québec, Agglomération de Québec, Capitale-Nationale, Québec, G1R 1N7, Canada", "geopy_name": "Pizza Hut" }, "geometry": { "type": "Point", "coordinates": [ -71.227355900001143, 46.806875100002813 ] } },
{ "type": "Feature", "properties": { "element": "node", "id": 345883676, "name": "La lumière du monde", "amenity": "place_of_worship", "Category": "Religious", "adresse_geopy": "La lumière du monde, 84, Rue Saint-Jean, Saint-Jean-Baptiste, La Cité-Limoilou, Québec, Agglomération de Québec, Capitale-Nationale, Québec, G1R 1N7, Canada", "geopy_name": "La lumière du monde" }, "geometry": { "type": "Point", "coordinates": [ -71.226720000001151, 46.807311000002798 ] } },
{ "type": "Feature", "properties": { "element": "node", "id": 345885890, "name": "Centre Bouddhiste Toushita", "amenity": "place_of_worship", "Category": "Religious", "adresse_geopy": "Centre Bouddhiste Toushita, 141, Rue Saint-Jean, Saint-Jean-Baptiste, La Cité-Limoilou, Québec, Agglomération de Québec, Capitale-Nationale, Québec, G1R 1N7, Canada", "geopy_name": "Centre Bouddhiste Toushita" }, "geometry": { "type": "Point", "coordinates": [ -71.225947200001158, 46.807533900002824 ] } },
{ "type": "Feature", "properties": { "element": "node", "id": 345886369, "name": "Chez Victor", "amenity": "restaurant", "Category": "Food", "adresse_geopy": "Chez Victor, 145, Rue Saint-Jean, Saint-Jean-Baptiste, La Cité-Limoilou, Québec, Agglomération de Québec, Capitale-Nationale, Québec, G1R 1N4, Canada", "geopy_name": "Chez Victor" }, "geometry": { "type": "Point", "coordinates": [ -71.225833600001152, 46.807670400002813 ] } },
{ "type": "Feature", "properties": { "element": "node", "id": 345890915, "name": "Subway", "amenity": "fast_food", "Category": "Food", "adresse_geopy": "Subway, 800, Rue d'Youville, Colline Parlementaire, Vieux-Québec–Cap-Blanc–Colline-Parlementaire, La Cité-Limoilou, Québec, Agglomération de Québec, Capitale-Nationale, Québec, G1R 3P4, Canada", "geopy_name": "Subway" }, "geometry": { "type": "Point", "coordinates": [ -71.214754600001143, 46.812231300002814 ] } },
{ "type": "Feature", "properties": { "element": "node", "id": 385036860, "name": "Les Loisirs Montcalm", "amenity": "community_centre", "Category": "Public Services", "adresse_geopy": "Les Loisirs Montcalm, 265, Boulevard René-Lévesque Ouest, Montcalm, La Cité-Limoilou, Québec, Agglomération de Québec, Capitale-Nationale, Québec, G1R 1X7, Canada", "geopy_name": "Les Loisirs Montcalm" }, "geometry": { "type": "Point", "coordinates": [ -71.228845200001132, 46.80271720000281 ] } },
{ "type": "Feature", "properties": { "element": "node", "id": 385037792, "name": "Les Délices d'Ariana", "amenity": "cafe", "Category": "Food", "adresse_geopy": "Les Délices d'Ariana, Boulevard René-Lévesque Ouest, Montcalm, La Cité-Limoilou, Québec, Agglomération de Québec, Capitale-Nationale, Québec, G1R 2S4, Canada", "geopy_name": "Les Délices d'Ariana" }, "geometry": { "type": "Point", "coordinates": [ -71.226876100001135, 46.804297500002818 ] } },
{ "type": "Feature", "properties": { "element": "node", "id": 385037889, "name": "Jean Coutu", "amenity": "pharmacy", "Category": "Health", "adresse_geopy": "Jean Coutu, 110, Boulevard René-Lévesque Ouest, Montcalm, La Cité-Limoilou, Québec, Agglomération de Québec, Capitale-Nationale, Québec, G1R 2A5, Canada", "geopy_name": "Jean Coutu" }, "geometry": { "type": "Point", "coordinates": [ -71.227173700001146, 46.804184400002811 ] } },
{ "type": "Feature", "properties": { "element": "node", "id": 385038554, "name": "Milano", "amenity": "cafe", "Category": "Food", "adresse_geopy": "Milano, 194, Rue Crémazie Ouest, Montcalm, La Cité-Limoilou, Québec, Agglomération de Québec, Capitale-Nationale, Québec, G1R 1X7, Canada", "geopy_name": "Milano" }, "geometry": { "type": "Point", "coordinates": [ -71.229112600001145, 46.804018500002812 ] } },
{ "type": "Feature", "properties": { "element": "node", "id": 385038700, "name": "Bügel", "amenity": "cafe", "Category": "Food", "adresse_geopy": "Bügel, 166, Rue Crémazie Ouest, Montcalm, La Cité-Limoilou, Québec, Agglomération de Québec, Capitale-Nationale, Québec, G1R 1X7, Canada", "geopy_name": "Bügel" }, "geometry": { "type": "Point", "coordinates": [ -71.228651200001153, 46.804238400002816 ] } },
{ "type": "Feature", "properties": { "element": "node", "id": 386248640, "name": "Petro-Canada", "amenity": "fuel", "Category": "Transport", "adresse_geopy": "Petro-Canada, Boulevard de l'Ormière, Complexe Chauveau L'Ormière, Des Châtels, La Haute-Saint-Charles, Québec, Agglomération de Québec, Capitale-Nationale, Québec, G2B 3K3, Canada", "geopy_name": "Petro-Canada" }, "geometry": { "type": "Point", "coordinates": [ -71.35064550000115, 46.831965100002812 ] } },
{ "type": "Feature", "properties": { "element": "node", "id": 386267989, "name": "Ly-Hai", "amenity": "restaurant", "Category": "Food", "adresse_geopy": "Ly-Hai, 815, Avenue Cartier, Montcalm, La Cité-Limoilou, Québec, Agglomération de Québec, Capitale-Nationale, Québec, G1R 1X4, Canada", "geopy_name": "Ly-Hai" }, "geometry": { "type": "Point", "coordinates": [ -71.22809170000113, 46.805610000002829 ] } },
{ "type": "Feature", "properties": { "element": "node", "id": 386268031, "name": "Café Castelo", "amenity": "cafe", "Category": "Food", "adresse_geopy": "Café Castelo, 807, Avenue Cartier, Montcalm, La Cité-Limoilou, Québec, Agglomération de Québec, Capitale-Nationale, Québec, G1R 2R8, Canada", "geopy_name": "Café Castelo" }, "geometry": { "type": "Point", "coordinates": [ -71.228218700001136, 46.805722700002804 ] } },
{ "type": "Feature", "properties": { "element": "node", "id": 386268032, "name": "Sushi Taxi", "amenity": "cafe", "Category": "Food", "adresse_geopy": "Sushi Taxi, 813, Avenue Cartier, Montcalm, La Cité-Limoilou, Québec, Agglomération de Québec, Capitale-Nationale, Québec, G1R 2R8, Canada", "geopy_name": "Sushi Taxi" }, "geometry": { "type": "Point", "coordinates": [ -71.22815640000114, 46.805667000002821 ] } },
{ "type": "Feature", "properties": { "element": "node", "id": 393559700, "name": "Mikes", "amenity": "restaurant", "Category": "Food", "adresse_geopy": "Mikes, Rue Durand, Loretteville-Sud, Loretteville, La Haute-Saint-Charles, Québec, Agglomération de Québec, Capitale-Nationale, Québec, G2B 1T5, Canada", "geopy_name": "Mikes" }, "geometry": { "type": "Point", "coordinates": [ -71.358244200001153, 46.838072400002822 ] } },
{ "type": "Feature", "properties": { "element": "node", "id": 393559701, "name": "Tim Hortons", "amenity": "cafe", "Category": "Food", "adresse_geopy": "Tim Hortons, 9430, Boulevard de l'Ormière, L'Ormière, Des Châtels, La Haute-Saint-Charles, Québec, Agglomération de Québec, Capitale-Nationale, Québec, G2B 4X4, Canada", "geopy_name": "Tim Hortons" }, "geometry": { "type": "Point", "coordinates": [ -71.35509430000117, 46.8357284000028 ] } },
{ "type": "Feature", "properties": { "element": "node", "id": 393559702, "name": "McDonald's", "amenity": "fast_food", "Category": "Food", "adresse_geopy": "McDonald's, Boulevard de l'Ormière, L'Ormière, Des Châtels, La Haute-Saint-Charles, Québec, Agglomération de Québec, Capitale-Nationale, Québec, G2B 2E7, Canada", "geopy_name": "McDonald's" }, "geometry": { "type": "Point", "coordinates": [ -71.354860000001167, 46.835477200002821 ] } },
{ "type": "Feature", "properties": { "element": "node", "id": 394196600, "name": "Esso", "amenity": "fuel", "Category": "Transport", "adresse_geopy": "Esso, Boulevard Valcartier, Quartier de l'Hôpital, Loretteville, La Haute-Saint-Charles, Québec, Agglomération de Québec, Capitale-Nationale, Québec, G2A 2M4, Canada", "geopy_name": "Esso" }, "geometry": { "type": "Point", "coordinates": [ -71.361679300001157, 46.855139500002799 ] } },
{ "type": "Feature", "properties": { "element": "node", "id": 394196602, "name": "Esso", "amenity": "fuel", "Category": "Transport", "adresse_geopy": "Esso, Boulevard de l'Ormière, Loretteville-Sud, Loretteville, La Haute-Saint-Charles, Québec, Agglomération de Québec, Capitale-Nationale, Québec, G2B 3J9, Canada", "geopy_name": "Esso" }, "geometry": { "type": "Point", "coordinates": [ -71.362444600001169, 46.84117800000282 ] } },
{ "type": "Feature", "properties": { "element": "node", "id": 399505770, "name": "Saint-Zéphyrin de Stadacona", "amenity": "place_of_worship", "Category": "Religious", "adresse_geopy": "Saint-Zéphyrin de Stadacona, Rue de l'Acadie, Limoilou, Vieux-Limoilou, La Cité-Limoilou, Québec, Agglomération de Québec, Capitale-Nationale, Québec, G1L 2J2, Canada", "geopy_name": "Saint-Zéphyrin de Stadacona" }, "geometry": { "type": "Point", "coordinates": [ -71.242368100001144, 46.824937800002807 ] } },
{ "type": "Feature", "properties": { "element": "node", "id": 399520726, "name": "Église Notre Dame de l'Espérance", "amenity": "place_of_worship", "Category": "Religious", "adresse_geopy": "Église Notre Dame de l'Espérance, Chemin du Petit-Village, Vieux-Moulin, Beauport, Québec, Agglomération de Québec, Capitale-Nationale, Québec, G1C 3V8, Canada", "geopy_name": "Église Notre Dame de l'Espérance" }, "geometry": { "type": "Point", "coordinates": [ -71.232593700001132, 46.853607300002807 ] } },
{ "type": "Feature", "properties": { "element": "node", "id": 400266971, "name": "Brunet", "amenity": "pharmacy", "Category": "Health", "adresse_geopy": "Brunet, Avenue Cartier, Montcalm, La Cité-Limoilou, Québec, Agglomération de Québec, Capitale-Nationale, Québec, G1R 2S6, Canada", "geopy_name": "Brunet" }, "geometry": { "type": "Point", "coordinates": [ -71.226198800001157, 46.804172400002813 ] } },
{ "type": "Feature", "properties": { "element": "node", "id": 400271605, "name": "Café Les Cousins", "amenity": "cafe", "Category": "Food", "adresse_geopy": "Café Les Cousins, 1029, Avenue Cartier, Montcalm, La Cité-Limoilou, Québec, Agglomération de Québec, Capitale-Nationale, Québec, G1R 2S3, Canada", "geopy_name": "Café Les Cousins" }, "geometry": { "type": "Point", "coordinates": [ -71.226081000001159, 46.804038600002819 ] } },
{ "type": "Feature", "properties": { "element": "node", "id": 400282934, "name": "Le Rideau Rouge", "amenity": "restaurant", "Category": "Food", "adresse_geopy": "Le Rideau Rouge, 1147, Avenue Cartier, Montcalm, La Cité-Limoilou, Québec, Agglomération de Québec, Capitale-Nationale, Québec, G1R 2S6, Canada", "geopy_name": "Le Rideau Rouge" }, "geometry": { "type": "Point", "coordinates": [ -71.22514720000116, 46.803305400002827 ] } },
{ "type": "Feature", "properties": { "element": "node", "id": 400283014, "name": "Café Krieghoff", "amenity": "cafe", "Category": "Food", "adresse_geopy": "Café Krieghoff, 1089, Avenue Cartier, Montcalm, La Cité-Limoilou, Québec, Agglomération de Québec, Capitale-Nationale, Québec, G1R 2S6, Canada", "geopy_name": "Café Krieghoff" }, "geometry": { "type": "Point", "coordinates": [ -71.225430600001133, 46.803551700002828 ] } },
{ "type": "Feature", "properties": { "element": "node", "id": 400283204, "name": "Petits Creux", "amenity": "restaurant", "Category": "Food", "adresse_geopy": "Petits Creux, 1125, Avenue Cartier, Montcalm, La Cité-Limoilou, Québec, Agglomération de Québec, Capitale-Nationale, Québec, G1R 2S6, Canada", "geopy_name": "Petits Creux" }, "geometry": { "type": "Point", "coordinates": [ -71.225282800001139, 46.803407000002835 ] } },
{ "type": "Feature", "properties": { "element": "node", "id": 400283356, "name": "Pizzédelic", "amenity": "restaurant", "Category": "Food", "adresse_geopy": "Pizzédelic, 1145, Avenue Cartier, Montcalm, La Cité-Limoilou, Québec, Agglomération de Québec, Capitale-Nationale, Québec, G1R 2S6, Canada", "geopy_name": "Pizzédelic" }, "geometry": { "type": "Point", "coordinates": [ -71.225199000001155, 46.803342600002807 ] } },
{ "type": "Feature", "properties": { "element": "node", "id": 400291516, "name": "Proxim", "amenity": "pharmacy", "Category": "Health", "adresse_geopy": "Proxim, 1149, Avenue Cartier, Montcalm, La Cité-Limoilou, Québec, Agglomération de Québec, Capitale-Nationale, Québec, G1R 2S6, Canada", "geopy_name": "Proxim" }, "geometry": { "type": "Point", "coordinates": [ -71.224958500001136, 46.803123900002802 ] } },
{ "type": "Feature", "properties": { "element": "node", "id": 400291856, "name": "Le Blaxton", "amenity": "pub", "Category": "Food", "adresse_geopy": "Le Blaxton, Avenue Cartier, Montcalm, La Cité-Limoilou, Québec, Agglomération de Québec, Capitale-Nationale, Québec, G1R 2S6, Canada", "geopy_name": "Le Blaxton" }, "geometry": { "type": "Point", "coordinates": [ -71.224750800001161, 46.802963900002808 ] } },
{ "type": "Feature", "properties": { "element": "node", "id": 400292015, "name": "Piazzetta", "amenity": "restaurant", "Category": "Food", "adresse_geopy": "Piazzetta, Avenue Cartier, Montcalm, La Cité-Limoilou, Québec, Agglomération de Québec, Capitale-Nationale, Québec, G1R 2S6, Canada", "geopy_name": "Piazzetta" }, "geometry": { "type": "Point", "coordinates": [ -71.224597600001132, 46.802846400002807 ] } },
{ "type": "Feature", "properties": { "element": "node", "id": 400292075, "name": "Graffiti", "amenity": "restaurant", "Category": "Food", "adresse_geopy": "Graffiti, Avenue Cartier, Montcalm, La Cité-Limoilou, Québec, Agglomération de Québec, Capitale-Nationale, Québec, G1R 2S6, Canada", "geopy_name": "Graffiti" }, "geometry": { "type": "Point", "coordinates": [ -71.224469200001153, 46.802709200002809 ] } },
{ "type": "Feature", "properties": { "element": "node", "id": 400303536, "name": "Sandwicherie Fastoche", "amenity": "fast_food", "Category": "Food", "adresse_geopy": "Sandwicherie Fastoche, 1191, Avenue Cartier, Montcalm, La Cité-Limoilou, Québec, Agglomération de Québec, Capitale-Nationale, Québec, G1R 2G9, Canada", "geopy_name": "Sandwicherie Fastoche" }, "geometry": { "type": "Point", "coordinates": [ -71.224404900001161, 46.802595000002817 ] } },
{ "type": "Feature", "properties": { "element": "node", "id": 400311753, "name": "Eddie Sushi Bar", "amenity": "restaurant", "Category": "Food", "adresse_geopy": "Eddie Sushi Bar, 1188, Avenue Cartier, Montcalm, La Cité-Limoilou, Québec, Agglomération de Québec, Capitale-Nationale, Québec, G1R 2S6, Canada", "geopy_name": "Eddie Sushi Bar" }, "geometry": { "type": "Point", "coordinates": [ -71.224844400001146, 46.802613900002818 ] } },
{ "type": "Feature", "properties": { "element": "node", "id": 400329715, "name": "Pub Galway", "amenity": "pub", "Category": "Food", "adresse_geopy": "Pub Galway, 1112, Avenue Cartier, Montcalm, La Cité-Limoilou, Québec, Agglomération de Québec, Capitale-Nationale, Québec, G1R 2S5, Canada", "geopy_name": "Pub Galway" }, "geometry": { "type": "Point", "coordinates": [ -71.225680400001153, 46.803293000002803 ] } },
{ "type": "Feature", "properties": { "element": "node", "id": 400329755, "name": "Subway", "amenity": "fast_food", "Category": "Food", "adresse_geopy": "Subway, 1094, Avenue Cartier, Montcalm, La Cité-Limoilou, Québec, Agglomération de Québec, Capitale-Nationale, Québec, G1R 2S8, Canada", "geopy_name": "Subway" }, "geometry": { "type": "Point", "coordinates": [ -71.225741400001155, 46.80334280000281 ] } },
{ "type": "Feature", "properties": { "element": "node", "id": 400330792, "name": "La Diperie", "amenity": "ice_cream", "Category": "Food", "adresse_geopy": "La Diperie, 1088, Avenue Cartier, Montcalm, La Cité-Limoilou, Québec, Agglomération de Québec, Capitale-Nationale, Québec, G1R 2S5, Canada", "geopy_name": "La Diperie" }, "geometry": { "type": "Point", "coordinates": [ -71.225814300001147, 46.803388900002808 ] } },
{ "type": "Feature", "properties": { "element": "node", "id": 400331786, "name": "Le jardin", "amenity": "bar", "Category": "Food", "adresse_geopy": "Le jardin, 1060, Avenue Cartier, Montcalm, La Cité-Limoilou, Québec, Agglomération de Québec, Capitale-Nationale, Québec, G1R 2S6, Canada", "geopy_name": "Le jardin" }, "geometry": { "type": "Point", "coordinates": [ -71.225924000001172, 46.803481000002797 ] } },
{ "type": "Feature", "properties": { "element": "node", "id": 400353663, "name": "Morena Epicerie Traiteur", "amenity": "restaurant", "Category": "Food", "adresse_geopy": "Morena Epicerie Traiteur, Rue Fraser, Montcalm, La Cité-Limoilou, Québec, Agglomération de Québec, Capitale-Nationale, Québec, G1R 2S4, Canada", "geopy_name": "Morena Epicerie Traiteur" }, "geometry": { "type": "Point", "coordinates": [ -71.226200400001147, 46.803693300002806 ] } },
{ "type": "Feature", "properties": { "element": "node", "id": 400353670, "name": "La Diperie", "amenity": "ice_cream", "Category": "Food", "adresse_geopy": "La Diperie, 1024, Avenue Cartier, Montcalm, La Cité-Limoilou, Québec, Agglomération de Québec, Capitale-Nationale, Québec, G1R 2S4, Canada", "geopy_name": "La Diperie" }, "geometry": { "type": "Point", "coordinates": [ -71.226435700001133, 46.8038831000028 ] } },
{ "type": "Feature", "properties": { "element": "node", "id": 401948348, "name": null, "amenity": "post_office", "Category": "Public Services", "adresse_geopy": "Postes Canada, Passage du Chien-d'Or, Vieux-Québec, Vieux-Québec–Cap-Blanc–Colline-Parlementaire, La Cité-Limoilou, Québec, Agglomération de Québec, Capitale-Nationale, Québec, G1R 4A1, Canada", "geopy_name": "Postes Canada" }, "geometry": { "type": "Point", "coordinates": [ -71.205170100001155, 46.813370600002806 ] } },
{ "type": "Feature", "properties": { "element": "node", "id": 401964868, "name": "Petro-Canada", "amenity": "fuel", "Category": "Transport", "adresse_geopy": "Petro-Canada, Rue Bell, Vieux-Québec, Vieux-Québec–Cap-Blanc–Colline-Parlementaire, La Cité-Limoilou, Québec, Agglomération de Québec, Capitale-Nationale, Québec, G1K 4C4, Canada", "geopy_name": "Petro-Canada" }, "geometry": { "type": "Point", "coordinates": [ -71.202564800001156, 46.81657340000281 ] } },
{ "type": "Feature", "properties": { "element": "node", "id": 402087331, "name": "McDonald's", "amenity": "fast_food", "Category": "Food", "adresse_geopy": "McDonald's, Rue Saint-Jean, Vieux-Québec, Vieux-Québec–Cap-Blanc–Colline-Parlementaire, La Cité-Limoilou, Québec, Agglomération de Québec, Capitale-Nationale, Québec, G1R 1S3, Canada", "geopy_name": "McDonald's" }, "geometry": { "type": "Point", "coordinates": [ -71.209882800001139, 46.814144500002804 ] } },
{ "type": "Feature", "properties": { "element": "node", "id": 403654452, "name": "Esso", "amenity": "fuel", "Category": "Transport", "adresse_geopy": "Esso, Route Sainte-Geneviève, Saint-Claude, Des Châtels, La Haute-Saint-Charles, Québec, Agglomération de Québec, Capitale-Nationale, Québec, G2B 1H4, Canada", "geopy_name": "Esso" }, "geometry": { "type": "Point", "coordinates": [ -71.389249700001145, 46.844443400002817 ] } },
{ "type": "Feature", "properties": { "element": "node", "id": 403654454, "name": "PFK", "amenity": "fast_food", "Category": "Food", "adresse_geopy": "PFK, Rue du Blanc-Manteau, Des Châtels, La Haute-Saint-Charles, Québec, Agglomération de Québec, Capitale-Nationale, Québec, G2B 3L5, Canada", "geopy_name": "PFK" }, "geometry": { "type": "Point", "coordinates": [ -71.368915200001169, 46.844718500002813 ] } },
{ "type": "Feature", "properties": { "element": "node", "id": 404302614, "name": "Centre culturel Georges Dor", "amenity": "townhall", "Category": "Public Services", "adresse_geopy": "Centre culturel Georges Dor, Route de l'Aéroport, Bélair, Val-Bélair, La Haute-Saint-Charles, Québec, Agglomération de Québec, Capitale-Nationale, Québec, G3K 1T4, Canada", "geopy_name": "Centre culturel Georges Dor" }, "geometry": { "type": "Point", "coordinates": [ -71.43505470000116, 46.843641600002805 ] } },
{ "type": "Feature", "properties": { "element": "node", "id": 404798852, "name": "Irving", "amenity": "fuel", "Category": "Transport", "adresse_geopy": "Irving, Boulevard Pie-XI Nord, Val-Bélair, La Haute-Saint-Charles, Québec, Agglomération de Québec, Capitale-Nationale, Québec, G3J 1G5, Canada", "geopy_name": "Irving" }, "geometry": { "type": "Point", "coordinates": [ -71.427525000001168, 46.86098590000281 ] } },
{ "type": "Feature", "properties": { "element": "node", "id": 404798855, "name": "Ultramar", "amenity": "fuel", "Category": "Transport", "adresse_geopy": "Ultramar, 1710, Boulevard Pie-XI Nord, Val-Saint-Michel, Val-Bélair, La Haute-Saint-Charles, Québec, Agglomération de Québec, Capitale-Nationale, Québec, G3J 1L6, Canada", "geopy_name": "Ultramar" }, "geometry": { "type": "Point", "coordinates": [ -71.442567500001147, 46.87158500000281 ] } },
{ "type": "Feature", "properties": { "element": "node", "id": 404798857, "name": "EKO", "amenity": "fuel", "Category": "Transport", "adresse_geopy": "EKO, Boulevard Pie-XI Nord, Val-Saint-Michel, Val-Bélair, La Haute-Saint-Charles, Québec, Agglomération de Québec, Capitale-Nationale, Québec, G3J 1L6, Canada", "geopy_name": "EKO" }, "geometry": { "type": "Point", "coordinates": [ -71.44606930000117, 46.872002600002808 ] } },
{ "type": "Feature", "properties": { "element": "node", "id": 430549060, "name": "Subway", "amenity": "fast_food", "Category": "Food", "adresse_geopy": "Subway, 15500, Boulevard de la Colline, Les Eaux-Fraîches, Lac-Saint-Charles, La Haute-Saint-Charles, Québec, Agglomération de Québec, Capitale-Nationale, Québec, G2G 2Z4, Canada", "geopy_name": "Subway" }, "geometry": { "type": "Point", "coordinates": [ -71.371275100001156, 46.88876350000281 ] } },
{ "type": "Feature", "properties": { "element": "node", "id": 430969658, "name": "École de la Passerelle", "amenity": "school", "Category": "Education", "adresse_geopy": "École de la Passerelle, Rue des Couventines, Lac-Saint-Charles, La Haute-Saint-Charles, Québec, Agglomération de Québec, Capitale-Nationale, Québec, G3G 1J2, Canada", "geopy_name": "École de la Passerelle" }, "geometry": { "type": "Point", "coordinates": [ -71.372722400001166, 46.908496900002824 ] } },
{ "type": "Feature", "properties": { "element": "node", "id": 430969660, "name": "Ultramar", "amenity": "fuel", "Category": "Transport", "adresse_geopy": "Ultramar, Rue de la Polyvalente, Notre-Dame-des-Laurentides, Charlesbourg, Québec, Agglomération de Québec, Capitale-Nationale, Québec, G2M 0C1, Canada", "geopy_name": "Ultramar" }, "geometry": { "type": "Point", "coordinates": [ -71.334255400001155, 46.912002400002798 ] } },
{ "type": "Feature", "properties": { "element": "node", "id": 450849041, "name": "Clinique dentaire André Nomand", "amenity": "dentist", "Category": "Health", "adresse_geopy": "Clinique dentaire André Nomand, Chemin Sainte-Foy, Saint-Sacrement, La Cité-Limoilou, Québec, Agglomération de Québec, Capitale-Nationale, Québec, G1S 2N2, Canada", "geopy_name": "Clinique dentaire André Nomand" }, "geometry": { "type": "Point", "coordinates": [ -71.254947800001148, 46.794196400002811 ] } },
{ "type": "Feature", "properties": { "element": "node", "id": 453832410, "name": "Ultramar", "amenity": "fuel", "Category": "Transport", "adresse_geopy": "Ultramar, Boulevard Louis-XIV, Saint-Michel, Beauport, Québec, Agglomération de Québec, Capitale-Nationale, Québec, G1C 5Y8, Canada", "geopy_name": "Ultramar" }, "geometry": { "type": "Point", "coordinates": [ -71.191452900001153, 46.899018500002796 ] } },
{ "type": "Feature", "properties": { "element": "node", "id": 453832419, "name": "Thaizone", "amenity": "restaurant", "Category": "Food", "adresse_geopy": "Thaizone, Boulevard Louis-XIV, Sainte-Thérèse-de-Lisieux, Beauport, Québec, Agglomération de Québec, Capitale-Nationale, Québec, G1C 5Y8, Canada", "geopy_name": "Thaizone" }, "geometry": { "type": "Point", "coordinates": [ -71.191582400001153, 46.899518600002807 ] } },
{ "type": "Feature", "properties": { "element": "node", "id": 453832426, "name": "Tim Hortons", "amenity": "cafe", "Category": "Food", "adresse_geopy": "Tim Hortons, Boulevard Raymond, Sainte-Thérèse-de-Lisieux, Beauport, Québec, Agglomération de Québec, Capitale-Nationale, Québec, G1C 1C3, Canada", "geopy_name": "Tim Hortons" }, "geometry": { "type": "Point", "coordinates": [ -71.191334800001144, 46.899556800002799 ] } },
{ "type": "Feature", "properties": { "element": "node", "id": 459405543, "name": "Normandin", "amenity": "restaurant", "Category": "Food", "adresse_geopy": "Normandin, Boulevard Louis-XIV, Saint-Michel, Beauport, Québec, Agglomération de Québec, Capitale-Nationale, Québec, G1C 5Y8, Canada", "geopy_name": "Normandin" }, "geometry": { "type": "Point", "coordinates": [ -71.213272600001147, 46.891173300002798 ] } },
{ "type": "Feature", "properties": { "element": "node", "id": 476151939, "name": "Eko", "amenity": "fuel", "Category": "Transport", "adresse_geopy": "Eko, Rue Duchesnay, Beauport, Vieux-Bourg, Beauport, Québec, Agglomération de Québec, Capitale-Nationale, Québec, G1E 6R9, Canada", "geopy_name": "Eko" }, "geometry": { "type": "Point", "coordinates": [ -71.196219300001133, 46.857068100002806 ] } },
{ "type": "Feature", "properties": { "element": "node", "id": 511792090, "name": "Taverne Giffard", "amenity": "pub", "Category": "Food", "adresse_geopy": "Taverne Giffard, 3535, Boulevard Monseigneur-Gauthier, Giffard, Vieux-Moulin, Beauport, Québec, Agglomération de Québec, Capitale-Nationale, Québec, G1E 2W9, Canada", "geopy_name": "Taverne Giffard" }, "geometry": { "type": "Point", "coordinates": [ -71.203322000001151, 46.853270600002801 ] } },
{ "type": "Feature", "properties": { "element": "node", "id": 518278747, "name": "Jean Coutu", "amenity": "pharmacy", "Category": "Health", "adresse_geopy": "Jean Coutu, Rue des Effigies, Val-Bélair, La Haute-Saint-Charles, Québec, Agglomération de Québec, Capitale-Nationale, Québec, G3K 1X7, Canada", "geopy_name": "Jean Coutu" }, "geometry": { "type": "Point", "coordinates": [ -71.418011200001146, 46.855396800002794 ] } },
{ "type": "Feature", "properties": { "element": "node", "id": 518278751, "name": "Subway", "amenity": "fast_food", "Category": "Food", "adresse_geopy": "Subway, Rue Emerson, Val-Bélair, La Haute-Saint-Charles, Québec, Agglomération de Québec, Capitale-Nationale, Québec, G3K 0E5, Canada", "geopy_name": "Subway" }, "geometry": { "type": "Point", "coordinates": [ -71.418454800001186, 46.855849900002809 ] } },
{ "type": "Feature", "properties": { "element": "node", "id": 523364893, "name": "Esso", "amenity": "fuel", "Category": "Transport", "adresse_geopy": "Esso, Boulevard Henri-Bourassa, Des Jésuites, Charlesbourg, Québec, Agglomération de Québec, Capitale-Nationale, Québec, G1H 2N1, Canada", "geopy_name": "Esso" }, "geometry": { "type": "Point", "coordinates": [ -71.241725100001148, 46.849614500002801 ] } },
{ "type": "Feature", "properties": { "element": "node", "id": 563637595, "name": "Bibliothèque Lebourgneuf", "amenity": "library", "Category": "Public Services", "adresse_geopy": "Bibliothèque Lebourgneuf, 150, Boulevard La Morille, Le Mesnil, Neufchâtel-Est–Lebourgneuf, Les Rivières, Québec, Agglomération de Québec, Capitale-Nationale, Québec, G2K 2L2, Canada", "geopy_name": "Bibliothèque Lebourgneuf" }, "geometry": { "type": "Point", "coordinates": [ -71.307699400001169, 46.842463000002816 ] } },
{ "type": "Feature", "properties": { "element": "node", "id": 594413912, "name": "Rascal", "amenity": "restaurant", "Category": "Food", "adresse_geopy": "Rascal, Boulevard Wilfrid-Hamel, Les Saules, Duberger–Les Saules, Les Rivières, Québec, Agglomération de Québec, Capitale-Nationale, Québec, G2E 5X5, Canada", "geopy_name": "Rascal" }, "geometry": { "type": "Point", "coordinates": [ -71.330340900001147, 46.803949300002806 ] } },
{ "type": "Feature", "properties": { "element": "node", "id": 660933910, "name": "Petro-Canada", "amenity": "fuel", "Category": "Transport", "adresse_geopy": "Petro-Canada, Boulevard René-Lévesque Ouest, Saint-Sacrement, La Cité-Limoilou, Québec, Agglomération de Québec, Capitale-Nationale, Québec, G1S 1T4, Canada", "geopy_name": "Petro-Canada" }, "geometry": { "type": "Point", "coordinates": [ -71.23983350000114, 46.796948600002821 ] } },
{ "type": "Feature", "properties": { "element": "node", "id": 760695939, "name": "ThaïZone", "amenity": "fast_food", "Category": "Food", "adresse_geopy": "Thaïzone, 2360, Chemin Sainte-Foy, Cité-Universitaire, Sainte-Foy–Sillery–Cap-Rouge, Québec, Agglomération de Québec, Capitale-Nationale, Québec, G1V 1T1, Canada", "geopy_name": "ThaïZone" }, "geometry": { "type": "Point", "coordinates": [ -71.282191700001164, 46.786442400002805 ] } },
{ "type": "Feature", "properties": { "element": "node", "id": 761252268, "name": "Topla!", "amenity": "restaurant", "Category": "Food", "adresse_geopy": "Topla!, 2360, Chemin Sainte-Foy, Cité-Universitaire, Sainte-Foy–Sillery–Cap-Rouge, Québec, Agglomération de Québec, Capitale-Nationale, Québec, G1V 1T1, Canada", "geopy_name": "Topla!" }, "geometry": { "type": "Point", "coordinates": [ -71.282026100001161, 46.786903400002807 ] } },
{ "type": "Feature", "properties": { "element": "node", "id": 762108116, "name": "Pizza Salvatoré", "amenity": "fast_food", "Category": "Food", "adresse_geopy": "Pizza Salvatoré, Chemin des Quatre-Bourgeois, Cité-Universitaire, Sainte-Foy–Sillery–Cap-Rouge, Québec, Agglomération de Québec, Capitale-Nationale, Québec, G1V 1T1, Canada", "geopy_name": "Pizza Salvatoré" }, "geometry": { "type": "Point", "coordinates": [ -71.281904000001148, 46.785641700002806 ] } },
{ "type": "Feature", "properties": { "element": "node", "id": 762109369, "name": "Tim Hortons", "amenity": "cafe", "Category": "Food", "adresse_geopy": "Tim Hortons, 2377, Chemin Sainte-Foy, Cité-Universitaire, Sainte-Foy–Sillery–Cap-Rouge, Québec, Agglomération de Québec, Capitale-Nationale, Québec, G1V 1T1, Canada", "geopy_name": "Tim Hortons" }, "geometry": { "type": "Point", "coordinates": [ -71.281932900001152, 46.785671700002808 ] } },
{ "type": "Feature", "properties": { "element": "node", "id": 833490059, "name": "Esso", "amenity": "fuel", "Category": "Transport", "adresse_geopy": "Esso, Rue Charles-Albanel, Les Sources, Cap-Rouge, Sainte-Foy–Sillery–Cap-Rouge, Québec, Agglomération de Québec, Capitale-Nationale, Québec, G1X 4V1, Canada", "geopy_name": "Esso" }, "geometry": { "type": "Point", "coordinates": [ -71.369899900001144, 46.764668500002806 ] } },
{ "type": "Feature", "properties": { "element": "node", "id": 929766213, "name": "Uniprix", "amenity": "pharmacy", "Category": "Health", "adresse_geopy": "Uniprix, Boulevard René-Lévesque Ouest, Saint-Sacrement, La Cité-Limoilou, Québec, Agglomération de Québec, Capitale-Nationale, Québec, G1S 1T4, Canada", "geopy_name": "Uniprix" }, "geometry": { "type": "Point", "coordinates": [ -71.239371800001138, 46.796764400002814 ] } },
{ "type": "Feature", "properties": { "element": "node", "id": 954870989, "name": "Bistro 1640", "amenity": "restaurant", "Category": "Food", "adresse_geopy": "Bistro 1640, 16, Rue Sainte-Anne, Vieux-Québec, Vieux-Québec–Cap-Blanc–Colline-Parlementaire, La Cité-Limoilou, Québec, Agglomération de Québec, Capitale-Nationale, Québec, G1R 4A1, Canada", "geopy_name": "Bistro 1640" }, "geometry": { "type": "Point", "coordinates": [ -71.205852200001132, 46.813077700002808 ] } },
{ "type": "Feature", "properties": { "element": "node", "id": 954871000, "name": "1640 Bistro Bar", "amenity": "bar", "Category": "Food", "adresse_geopy": "1640 Bistro Bar, 18, Rue Sainte-Anne, Vieux-Québec, Vieux-Québec–Cap-Blanc–Colline-Parlementaire, La Cité-Limoilou, Québec, Agglomération de Québec, Capitale-Nationale, Québec, G1R 4A1, Canada", "geopy_name": "1640 Bistro Bar" }, "geometry": { "type": "Point", "coordinates": [ -71.20594870000113, 46.813078600002818 ] } },
{ "type": "Feature", "properties": { "element": "node", "id": 955278468, "name": "Starbucks", "amenity": "cafe", "Category": "Food", "adresse_geopy": "Starbucks, Rue des Carrières, Vieux-Québec, Vieux-Québec–Cap-Blanc–Colline-Parlementaire, La Cité-Limoilou, Québec, Agglomération de Québec, Capitale-Nationale, Québec, G1R 4P5, Canada", "geopy_name": "Starbucks" }, "geometry": { "type": "Point", "coordinates": [ -71.204918200001146, 46.812372800002798 ] } },
{ "type": "Feature", "properties": { "element": "node", "id": 1019190865, "name": "Aux Anciens Canadiens", "amenity": "restaurant", "Category": "Food", "adresse_geopy": "Aux Anciens Canadiens, 34, Rue Saint-Louis, Vieux-Québec, Vieux-Québec–Cap-Blanc–Colline-Parlementaire, La Cité-Limoilou, Québec, Agglomération de Québec, Capitale-Nationale, Québec, G1R 3Y9, Canada", "geopy_name": "Aux Anciens Canadiens" }, "geometry": { "type": "Point", "coordinates": [ -71.207428300001141, 46.81169250000282 ] } },
{ "type": "Feature", "properties": { "element": "node", "id": 1019192114, "name": "Restaurant Initiale", "amenity": "restaurant", "Category": "Food", "adresse_geopy": "Restaurant Initiale, 54, Rue Saint-Pierre, Vieux-Québec, Vieux-Québec–Cap-Blanc–Colline-Parlementaire, La Cité-Limoilou, Québec, Agglomération de Québec, Capitale-Nationale, Québec, G1K 4A1, Canada", "geopy_name": "Restaurant Initiale" }, "geometry": { "type": "Point", "coordinates": [ -71.202607200001154, 46.814118900002804 ] } },
{ "type": "Feature", "properties": { "element": "node", "id": 1117431440, "name": "Taxi Coop Charlesbourg", "amenity": "taxi", "Category": "Transport", "adresse_geopy": "Taxi Coop Charlesbourg, 58e Rue Est, Charlesbourg, Trait-Carré, Charlesbourg, Québec, Agglomération de Québec, Capitale-Nationale, Québec, G1H 7J1, Canada", "geopy_name": "Taxi Coop Charlesbourg" }, "geometry": { "type": "Point", "coordinates": [ -71.25668670000114, 46.850775200002808 ] } },
{ "type": "Feature", "properties": { "element": "node", "id": 1123963007, "name": "Jean Coutu", "amenity": "pharmacy", "Category": "Health", "adresse_geopy": "Jean Coutu, Rue Racine, Quartier de l'Hôpital, Loretteville, La Haute-Saint-Charles, Québec, Agglomération de Québec, Capitale-Nationale, Québec, G2B 1G3, Canada", "geopy_name": "Jean Coutu" }, "geometry": { "type": "Point", "coordinates": [ -71.367557900001145, 46.844967100002805 ] } },
{ "type": "Feature", "properties": { "element": "node", "id": 1197052341, "name": "Paillard", "amenity": "cafe", "Category": "Food", "adresse_geopy": "Paillard, 1097, Rue Saint-Jean, Vieux-Québec, Vieux-Québec–Cap-Blanc–Colline-Parlementaire, La Cité-Limoilou, Québec, Agglomération de Québec, Capitale-Nationale, Québec, G1R 1S3, Canada", "geopy_name": "Paillard" }, "geometry": { "type": "Point", "coordinates": [ -71.210710000001157, 46.813716000002806 ] } },
{ "type": "Feature", "properties": { "element": "node", "id": 1198683399, "name": "Bureau d'arrondissement de Beauport", "amenity": "townhall", "Category": "Public Services", "adresse_geopy": "Bureau d'arrondissement de Beauport, Rue Saint-Jules, Beauport, Vieux-Bourg, Beauport, Québec, Agglomération de Québec, Capitale-Nationale, Québec, G1E 6R9, Canada", "geopy_name": "Bureau d'arrondissement de Beauport" }, "geometry": { "type": "Point", "coordinates": [ -71.193024900001149, 46.859481300002813 ] } },
{ "type": "Feature", "properties": { "element": "node", "id": 1198781668, "name": "Clinique dentaire Durepos & Associés", "amenity": "dentist", "Category": "Health", "adresse_geopy": "Clinique dentaire Durepos & Associés, 63, Rue Boisclerc, Lairet, La Cité-Limoilou, Québec, Agglomération de Québec, Capitale-Nationale, Québec, G1L 1Z1, Canada", "geopy_name": "Clinique dentaire Durepos & Associés" }, "geometry": { "type": "Point", "coordinates": [ -71.241183200001146, 46.830777900002808 ] } },
{ "type": "Feature", "properties": { "element": "node", "id": 1263352650, "name": "Tim Hortons", "amenity": "cafe", "Category": "Food", "adresse_geopy": "Tim Hortons, Rue Clemenceau, Saint-Michel, Beauport, Québec, Agglomération de Québec, Capitale-Nationale, Québec, G1C 4N6, Canada", "geopy_name": "Tim Hortons" }, "geometry": { "type": "Point", "coordinates": [ -71.197635500001141, 46.87427310000281 ] } },
{ "type": "Feature", "properties": { "element": "node", "id": 1264181093, "name": "Esso", "amenity": "fuel", "Category": "Transport", "adresse_geopy": "Esso, Rue Clemenceau, Saint-Michel, Beauport, Québec, Agglomération de Québec, Capitale-Nationale, Québec, G1C 4N6, Canada", "geopy_name": "Esso" }, "geometry": { "type": "Point", "coordinates": [ -71.197447700001149, 46.874440600002814 ] } },
{ "type": "Feature", "properties": { "element": "node", "id": 1373242783, "name": "Pharmaprix", "amenity": "pharmacy", "Category": "Health", "adresse_geopy": "Pharmaprix, Avenue du Béarn, Orsainville, Charlesbourg, Québec, Agglomération de Québec, Capitale-Nationale, Québec, G1G 2G7, Canada", "geopy_name": "Pharmaprix" }, "geometry": { "type": "Point", "coordinates": [ -71.280491000001149, 46.872644900002797 ] } },
{ "type": "Feature", "properties": { "element": "node", "id": 1373288521, "name": "Canadian Tire", "amenity": "fuel", "Category": "Transport", "adresse_geopy": "Canadian Tire, Boulevard Henri-Bourassa, Orsainville, Charlesbourg, Québec, Agglomération de Québec, Capitale-Nationale, Québec, G1G 2G7, Canada", "geopy_name": "Canadian Tire" }, "geometry": { "type": "Point", "coordinates": [ -71.280099300001154, 46.873213300002824 ] } },
{ "type": "Feature", "properties": { "element": "node", "id": 1435011830, "name": "Bibliothèque Collège-Des-Jésuites", "amenity": "library", "Category": "Public Services", "adresse_geopy": "Bibliothèque Collège-Des-Jésuites, 1120, Boulevard René-Lévesque Ouest, Saint-Sacrement, La Cité-Limoilou, Québec, Agglomération de Québec, Capitale-Nationale, Québec, G1S 4W4, Canada", "geopy_name": "Bibliothèque Collège-Des-Jésuites" }, "geometry": { "type": "Point", "coordinates": [ -71.243671700001144, 46.795019800002812 ] } },
{ "type": "Feature", "properties": { "element": "node", "id": 1559343051, "name": "Bibliothèque de Neufchâtel", "amenity": "library", "Category": "Public Services", "adresse_geopy": "Bibliothèque de Neufchâtel, Rue Blain, L'Ormière, Des Châtels, La Haute-Saint-Charles, Québec, Agglomération de Québec, Capitale-Nationale, Québec, G2B 4R7, Canada", "geopy_name": "Bibliothèque de Neufchâtel" }, "geometry": { "type": "Point", "coordinates": [ -71.357454100001149, 46.835225100002802 ] } },
{ "type": "Feature", "properties": { "element": "node", "id": 1559350941, "name": "Sushi Shop", "amenity": "fast_food", "Category": "Food", "adresse_geopy": "Sushi Shop, 9155, Boulevard de l'Ormière, Complexe Chauveau L'Ormière, Des Châtels, La Haute-Saint-Charles, Québec, Agglomération de Québec, Capitale-Nationale, Québec, G2B 3K3, Canada", "geopy_name": "Sushi Shop" }, "geometry": { "type": "Point", "coordinates": [ -71.352129300001167, 46.83298100000281 ] } },
{ "type": "Feature", "properties": { "element": "node", "id": 1559358970, "name": "Ultramar", "amenity": "fuel", "Category": "Transport", "adresse_geopy": "Ultramar, Boulevard de l'Ormière, L'Ormière, Des Châtels, La Haute-Saint-Charles, Québec, Agglomération de Québec, Capitale-Nationale, Québec, G2B 2E7, Canada", "geopy_name": "Ultramar" }, "geometry": { "type": "Point", "coordinates": [ -71.354431300001153, 46.834492600002797 ] } },
{ "type": "Feature", "properties": { "element": "node", "id": 1577692642, "name": "Baguette & Cie", "amenity": "cafe", "Category": "Food", "adresse_geopy": "Baguette & Cie, 217, Rue Saint-Paul, Vieux-Québec, Vieux-Québec–Cap-Blanc–Colline-Parlementaire, La Cité-Limoilou, Québec, Agglomération de Québec, Capitale-Nationale, Québec, G1K 3W3, Canada", "geopy_name": "Baguette & Cie" }, "geometry": { "type": "Point", "coordinates": [ -71.208950900001156, 46.816829600002805 ] } },
{ "type": "Feature", "properties": { "element": "node", "id": 1608109490, "name": "Pharmaprix", "amenity": "pharmacy", "Category": "Health", "adresse_geopy": "Pharmaprix, Boulevard de l'Ormière, L'Ormière, Des Châtels, La Haute-Saint-Charles, Québec, Agglomération de Québec, Capitale-Nationale, Québec, G2B 2E7, Canada", "geopy_name": "Pharmaprix" }, "geometry": { "type": "Point", "coordinates": [ -71.355396100001158, 46.834932500002807 ] } },
{ "type": "Feature", "properties": { "element": "node", "id": 1608113909, "name": "Proxim", "amenity": "pharmacy", "Category": "Health", "adresse_geopy": "Proxim, Rue Blain, L'Ormière, Des Châtels, La Haute-Saint-Charles, Québec, Agglomération de Québec, Capitale-Nationale, Québec, G2B 4R7, Canada", "geopy_name": "Proxim" }, "geometry": { "type": "Point", "coordinates": [ -71.356453300001164, 46.835693900002795 ] } },
{ "type": "Feature", "properties": { "element": "node", "id": 1608125686, "name": "Brunet", "amenity": "pharmacy", "Category": "Health", "adresse_geopy": "Brunet, Rue Saint-Maurice, Loretteville-Sud, Des Châtels, La Haute-Saint-Charles, Québec, Agglomération de Québec, Capitale-Nationale, Québec, G2B 3J9, Canada", "geopy_name": "Brunet" }, "geometry": { "type": "Point", "coordinates": [ -71.356989900001139, 46.837519600002807 ] } },
{ "type": "Feature", "properties": { "element": "node", "id": 1608125693, "name": "Bar Le Chatel", "amenity": "bar", "Category": "Food", "adresse_geopy": "Bar Le Chatel, Rue Saint-Maurice, Loretteville-Sud, Des Châtels, La Haute-Saint-Charles, Québec, Agglomération de Québec, Capitale-Nationale, Québec, G2B 3J9, Canada", "geopy_name": "Bar Le Chatel" }, "geometry": { "type": "Point", "coordinates": [ -71.357330300001152, 46.837791400002814 ] } },
{ "type": "Feature", "properties": { "element": "node", "id": 1608130646, "name": "Pizza Wellat", "amenity": "fast_food", "Category": "Food", "adresse_geopy": "Pizza Wellat, Boulevard de l'Ormière, Complexe Chauveau L'Ormière, Des Châtels, La Haute-Saint-Charles, Québec, Agglomération de Québec, Capitale-Nationale, Québec, G2B 3K3, Canada", "geopy_name": "Pizza Wellat" }, "geometry": { "type": "Point", "coordinates": [ -71.353057600001165, 46.833413700002822 ] } },
{ "type": "Feature", "properties": { "element": "node", "id": 1609541717, "name": "Harvey's", "amenity": "fast_food", "Category": "Food", "adresse_geopy": "Harvey's, Boulevard de l'Ormière, Complexe Chauveau L'Ormière, Des Châtels, La Haute-Saint-Charles, Québec, Agglomération de Québec, Capitale-Nationale, Québec, G2B 3K3, Canada", "geopy_name": "Harvey's" }, "geometry": { "type": "Point", "coordinates": [ -71.350464800001163, 46.832700600002823 ] } },
{ "type": "Feature", "properties": { "element": "node", "id": 1609614631, "name": "Quiznos", "amenity": "fast_food", "Category": "Food", "adresse_geopy": "Quiznos, Rue Saint-Maurice, Loretteville-Sud, Des Châtels, La Haute-Saint-Charles, Québec, Agglomération de Québec, Capitale-Nationale, Québec, G2B 3J9, Canada", "geopy_name": "Quiznos" }, "geometry": { "type": "Point", "coordinates": [ -71.356208500001159, 46.837024300002788 ] } },
{ "type": "Feature", "properties": { "element": "node", "id": 1609614637, "name": "Banque Nationale", "amenity": "bank", "Category": "Financial", "adresse_geopy": "Banque Nationale, Rue Saint-Maurice, Loretteville-Sud, Des Châtels, La Haute-Saint-Charles, Québec, Agglomération de Québec, Capitale-Nationale, Québec, G2B 3J9, Canada", "geopy_name": "Banque Nationale" }, "geometry": { "type": "Point", "coordinates": [ -71.356298400001151, 46.837077600002793 ] } },
{ "type": "Feature", "properties": { "element": "node", "id": 1613798376, "name": "Tim Hortons", "amenity": "cafe", "Category": "Food", "adresse_geopy": "Tim Hortons, 2790, Rue de la Faune, Saint-Émile, La Haute-Saint-Charles, Québec, Agglomération de Québec, Capitale-Nationale, Québec, G3E 1H1, Canada", "geopy_name": "Tim Hortons" }, "geometry": { "type": "Point", "coordinates": [ -71.350085600001165, 46.865968900002805 ] } },
{ "type": "Feature", "properties": { "element": "node", "id": 1613841851, "name": "Canadian Tire Essence +", "amenity": "fuel", "Category": "Transport", "adresse_geopy": "Canadian Tire Essence +, 4895, Boulevard de l'Ormière, Parc Industriel Armand-Viau, Place-Duclos, Duberger–Les Saules, Les Rivières, Québec, Agglomération de Québec, Capitale-Nationale, Québec, G1P 1K6, Canada", "geopy_name": "Canadian Tire Essence +" }, "geometry": { "type": "Point", "coordinates": [ -71.330870400001146, 46.817763900002817 ] } },
{ "type": "Feature", "properties": { "element": "node", "id": 1615218045, "name": "Tim Hortons", "amenity": "cafe", "Category": "Food", "adresse_geopy": "Tim Hortons, 1re Avenue, Lairet, La Cité-Limoilou, Québec, Agglomération de Québec, Capitale-Nationale, Québec, G1L 1J8, Canada", "geopy_name": "Tim Hortons" }, "geometry": { "type": "Point", "coordinates": [ -71.247200500001156, 46.840897100002799 ] } },
{ "type": "Feature", "properties": { "element": "node", "id": 1615218046, "name": "Jean Coutu", "amenity": "pharmacy", "Category": "Health", "adresse_geopy": "Jean Coutu, 42e Rue Ouest, Saint-Rodrigue, Charlesbourg, Québec, Agglomération de Québec, Capitale-Nationale, Québec, G1L 1A1, Canada", "geopy_name": "Jean Coutu" }, "geometry": { "type": "Point", "coordinates": [ -71.249577900001171, 46.842061700002816 ] } },
{ "type": "Feature", "properties": { "element": "node", "id": 1615232770, "name": "Brunet", "amenity": "pharmacy", "Category": "Health", "adresse_geopy": "Brunet, 2780, Boulevard Masson, Les Saules, Duberger–Les Saules, Les Rivières, Québec, Agglomération de Québec, Capitale-Nationale, Québec, G1P 1J6, Canada", "geopy_name": "Brunet" }, "geometry": { "type": "Point", "coordinates": [ -71.320610900001157, 46.811049100002812 ] } },
{ "type": "Feature", "properties": { "element": "node", "id": 1616631055, "name": "Tim Hortons", "amenity": "cafe", "Category": "Food", "adresse_geopy": "Tim Hortons, 1060, Rue Louis-Alexandre-Taschereau, Colline Parlementaire, Vieux-Québec–Cap-Blanc–Colline-Parlementaire, La Cité-Limoilou, Québec, Agglomération de Québec, Capitale-Nationale, Québec, G1R 5E6, Canada", "geopy_name": "Tim Hortons" }, "geometry": { "type": "Point", "coordinates": [ -71.216415500001148, 46.807772300002796 ] } },
{ "type": "Feature", "properties": { "element": "node", "id": 1616631074, "name": "Banque Nationale", "amenity": "bank", "Category": "Financial", "adresse_geopy": "Banque Nationale, 150, Boulevard René-Lévesque Est, Saint-Jean-Baptiste, La Cité-Limoilou, Québec, Agglomération de Québec, Capitale-Nationale, Québec, G1R 2A5, Canada", "geopy_name": "Banque Nationale" }, "geometry": { "type": "Point", "coordinates": [ -71.223648100001157, 46.806251500002823 ] } },
{ "type": "Feature", "properties": { "element": "node", "id": 1616631079, "name": "Bistro L'Accent", "amenity": "restaurant", "Category": "Food", "adresse_geopy": "Bistro L'Accent, 810, Avenue Honoré-Mercier, Saint-Jean-Baptiste, La Cité-Limoilou, Québec, Agglomération de Québec, Capitale-Nationale, Québec, G1R 5N4, Canada", "geopy_name": "Bistro L'Accent" }, "geometry": { "type": "Point", "coordinates": [ -71.21561070000115, 46.811831200002807 ] } },
{ "type": "Feature", "properties": { "element": "node", "id": 1617956086, "name": "Petro-Canada", "amenity": "fuel", "Category": "Transport", "adresse_geopy": "Petro-Canada, 505, Chemin Sainte-Foy, Saint-Sacrement, La Cité-Limoilou, Québec, Agglomération de Québec, Capitale-Nationale, Québec, G1S 2N6, Canada", "geopy_name": "Petro-Canada" }, "geometry": { "type": "Point", "coordinates": [ -71.254719500001144, 46.794669200002815 ] } },
{ "type": "Feature", "properties": { "element": "node", "id": 1626360809, "name": "Succursale Poste-Canada", "amenity": "post_office", "Category": "Public Services", "adresse_geopy": "Succursale Poste-Canada, Boulevard de l'Ormière, L'Ormière, Des Châtels, La Haute-Saint-Charles, Québec, Agglomération de Québec, Capitale-Nationale, Québec, G2B 2E7, Canada", "geopy_name": "Succursale Poste-Canada" }, "geometry": { "type": "Point", "coordinates": [ -71.355557100001164, 46.834670200002797 ] } },
{ "type": "Feature", "properties": { "element": "node", "id": 1626363836, "name": "Bureau de Poste Galeries de la Capitale", "amenity": "post_office", "Category": "Public Services", "adresse_geopy": "Bureau de Poste Galeries de la Capitale, Autoroute Robert-Bourassa, Lebourgneuf, Neufchâtel-Est–Lebourgneuf, Les Rivières, Québec, Agglomération de Québec, Capitale-Nationale, Québec, G2K 1N4, Canada", "geopy_name": "Bureau de Poste Galeries de la Capitale" }, "geometry": { "type": "Point", "coordinates": [ -71.299431700001165, 46.830493600002818 ] } },
{ "type": "Feature", "properties": { "element": "node", "id": 1626373312, "name": "Succursale Postale", "amenity": "post_office", "Category": "Public Services", "adresse_geopy": "Succursale Postale, 2300, Boulevard Père-Lelièvre, Duberger, Duberger–Les Saules, Les Rivières, Québec, Agglomération de Québec, Capitale-Nationale, Québec, G1P 2X5, Canada", "geopy_name": "Succursale Postale" }, "geometry": { "type": "Point", "coordinates": [ -71.299196500001145, 46.81216730000282 ] } },
{ "type": "Feature", "properties": { "element": "node", "id": 1626373315, "name": "Familiprix", "amenity": "pharmacy", "Category": "Health", "adresse_geopy": "Familiprix, 2300, Boulevard Père-Lelièvre, Duberger, Duberger–Les Saules, Les Rivières, Québec, Agglomération de Québec, Capitale-Nationale, Québec, G1P 2X5, Canada", "geopy_name": "Familiprix" }, "geometry": { "type": "Point", "coordinates": [ -71.299201800001157, 46.812255400002819 ] } },
{ "type": "Feature", "properties": { "element": "node", "id": 1626426307, "name": "Succursale Postale", "amenity": "post_office", "Category": "Public Services", "adresse_geopy": "Succursale Postale, Rue De Chavigny, Le Plateau, Plateau, Sainte-Foy–Sillery–Cap-Rouge, Québec, Agglomération de Québec, Capitale-Nationale, Québec, G1X 3C2, Canada", "geopy_name": "Succursale Postale" }, "geometry": { "type": "Point", "coordinates": [ -71.315529400001154, 46.772660500002821 ] } },
{ "type": "Feature", "properties": { "element": "node", "id": 1626426312, "name": "Familiprix", "amenity": "pharmacy", "Category": "Health", "adresse_geopy": "Familiprix, 3207, Chemin Sainte-Foy, Le Plateau, Plateau, Sainte-Foy–Sillery–Cap-Rouge, Québec, Agglomération de Québec, Capitale-Nationale, Québec, G1X 2T1, Canada", "geopy_name": "Familiprix" }, "geometry": { "type": "Point", "coordinates": [ -71.315768100001137, 46.772710100002833 ] } },
{ "type": "Feature", "properties": { "element": "node", "id": 1626436402, "name": null, "amenity": "atm", "Category": "Financial", "adresse_geopy": "Desjardins, Rue du Campanile, Pointe-de-Sainte-Foy, Sainte-Foy–Sillery–Cap-Rouge, Québec, Agglomération de Québec, Capitale-Nationale, Québec, G1X 4G5, Canada", "geopy_name": "Desjardins" }, "geometry": { "type": "Point", "coordinates": [ -71.333382100001145, 46.761831800002817 ] } },
{ "type": "Feature", "properties": { "element": "node", "id": 1626436408, "name": "Sucursale Postale", "amenity": "post_office", "Category": "Public Services", "adresse_geopy": "Sucursale Postale, Rue du Campanile, Pointe-de-Sainte-Foy, Sainte-Foy–Sillery–Cap-Rouge, Québec, Agglomération de Québec, Capitale-Nationale, Québec, G1X 4G5, Canada", "geopy_name": "Sucursale Postale" }, "geometry": { "type": "Point", "coordinates": [ -71.334181600001159, 46.761514900002815 ] } },
{ "type": "Feature", "properties": { "element": "node", "id": 1626436415, "name": "Pharmacie Brunet", "amenity": "pharmacy", "Category": "Health", "adresse_geopy": "Pharmacie Brunet, Rue du Campanile, Pointe-de-Sainte-Foy, Sainte-Foy–Sillery–Cap-Rouge, Québec, Agglomération de Québec, Capitale-Nationale, Québec, G1X 4G5, Canada", "geopy_name": "Pharmacie Brunet" }, "geometry": { "type": "Point", "coordinates": [ -71.33415190000116, 46.761414700002817 ] } },
{ "type": "Feature", "properties": { "element": "node", "id": 1626439668, "name": "Bureau de Poste Cap Rouge", "amenity": "post_office", "Category": "Public Services", "adresse_geopy": "Bureau de Poste Cap Rouge, Boulevard de la Chaudière, Cap-Rouge, Sainte-Foy–Sillery–Cap-Rouge, Québec, Agglomération de Québec, Capitale-Nationale, Québec, G1Y 3T4, Canada", "geopy_name": "Bureau de Poste Cap Rouge" }, "geometry": { "type": "Point", "coordinates": [ -71.351232000001161, 46.759607100002803 ] } },
{ "type": "Feature", "properties": { "element": "node", "id": 1626443044, "name": "Succursale Postale", "amenity": "post_office", "Category": "Public Services", "adresse_geopy": "Succursale Postale, Route Jean-Gauvin, Les Sources, Cap-Rouge, Sainte-Foy–Sillery–Cap-Rouge, Québec, Agglomération de Québec, Capitale-Nationale, Québec, G1X 4M4, Canada", "geopy_name": "Succursale Postale" }, "geometry": { "type": "Point", "coordinates": [ -71.368339600001136, 46.764130500002814 ] } },
{ "type": "Feature", "properties": { "element": "node", "id": 1628893640, "name": "Chez Ashton", "amenity": "fast_food", "Category": "Food", "adresse_geopy": "Chez Ashton, Rue des Bouleaux Est, Lairet, La Cité-Limoilou, Québec, Agglomération de Québec, Capitale-Nationale, Québec, G1L 1M5, Canada", "geopy_name": "Chez Ashton" }, "geometry": { "type": "Point", "coordinates": [ -71.243046400001148, 46.836297900002798 ] } },
{ "type": "Feature", "properties": { "element": "node", "id": 1628908735, "name": "Courtbouillon resto cajun", "amenity": "restaurant", "Category": "Food", "adresse_geopy": "Courtbouillon resto cajun, 830, Boulevard Charest Est, Saint-Roch, La Cité-Limoilou, Québec, Agglomération de Québec, Capitale-Nationale, Québec, G1K 8H8, Canada", "geopy_name": "Courtbouillon resto cajun" }, "geometry": { "type": "Point", "coordinates": [ -71.218540100001135, 46.816056200002834 ] } },
{ "type": "Feature", "properties": { "element": "node", "id": 1628908747, "name": "Pub Edward", "amenity": "pub", "Category": "Food", "adresse_geopy": "Pub Edward, 824, Boulevard Charest Est, Saint-Roch, La Cité-Limoilou, Québec, Agglomération de Québec, Capitale-Nationale, Québec, G1K 8H8, Canada", "geopy_name": "Pub Edward" }, "geometry": { "type": "Point", "coordinates": [ -71.218712000001133, 46.816002400002823 ] } },
{ "type": "Feature", "properties": { "element": "node", "id": 1628908773, "name": "MO Resto Bar", "amenity": "bar", "Category": "Food", "adresse_geopy": "MO Resto Bar, 810, Boulevard Charest Est, Saint-Roch, La Cité-Limoilou, Québec, Agglomération de Québec, Capitale-Nationale, Québec, G1K 8H8, Canada", "geopy_name": "MO Resto Bar" }, "geometry": { "type": "Point", "coordinates": [ -71.218841900001152, 46.815961800002796 ] } },
{ "type": "Feature", "properties": { "element": "node", "id": 1628948099, "name": "Chez Victor", "amenity": "restaurant", "Category": "Food", "adresse_geopy": "Chez Victor, 300, Rue Saint-Paul, Vieux-Québec, Vieux-Québec–Cap-Blanc–Colline-Parlementaire, La Cité-Limoilou, Québec, Agglomération de Québec, Capitale-Nationale, Québec, G1K 7R1, Canada", "geopy_name": "Chez Victor" }, "geometry": { "type": "Point", "coordinates": [ -71.211646200001155, 46.817074200002814 ] } },
{ "type": "Feature", "properties": { "element": "node", "id": 1629137452, "name": "Tim Hortons", "amenity": "cafe", "Category": "Food", "adresse_geopy": "Tim Hortons, 960, Avenue de Bourgogne, Saint-Mathieu, Plateau, Sainte-Foy–Sillery–Cap-Rouge, Québec, Agglomération de Québec, Capitale-Nationale, Québec, G1W 2K9, Canada", "geopy_name": "Tim Hortons" }, "geometry": { "type": "Point", "coordinates": [ -71.311433900001163, 46.766083000002816 ] } },
{ "type": "Feature", "properties": { "element": "node", "id": 1629137464, "name": "Esso", "amenity": "fuel", "Category": "Transport", "adresse_geopy": "Esso, Chemin des Quatre-Bourgeois, Saint-Mathieu, Plateau, Sainte-Foy–Sillery–Cap-Rouge, Québec, Agglomération de Québec, Capitale-Nationale, Québec, G1W 2K9, Canada", "geopy_name": "Esso" }, "geometry": { "type": "Point", "coordinates": [ -71.310826800001152, 46.766549600002811 ] } },
{ "type": "Feature", "properties": { "element": "node", "id": 1629203226, "name": "Subway", "amenity": "fast_food", "Category": "Food", "adresse_geopy": "Subway, Chemin des Quatre-Bourgeois, Cité-Universitaire, Sainte-Foy–Sillery–Cap-Rouge, Québec, Agglomération de Québec, Capitale-Nationale, Québec, G1V 1T1, Canada", "geopy_name": "Subway" }, "geometry": { "type": "Point", "coordinates": [ -71.281865100001156, 46.785602400002809 ] } },
{ "type": "Feature", "properties": { "element": "node", "id": 1675745306, "name": "Uniprix", "amenity": "pharmacy", "Category": "Health", "adresse_geopy": "Uniprix, 4770, Route Sainte-Geneviève, Saint-Claude, Des Châtels, La Haute-Saint-Charles, Québec, Agglomération de Québec, Capitale-Nationale, Québec, G2B 1H4, Canada", "geopy_name": "Uniprix" }, "geometry": { "type": "Point", "coordinates": [ -71.389718100001161, 46.843890000002816 ] } },
{ "type": "Feature", "properties": { "element": "node", "id": 1682266062, "name": "Beiko", "amenity": "fast_food", "Category": "Food", "adresse_geopy": "Beiko, 9310, Boulevard de l'Ormière, L'Ormière, Des Châtels, La Haute-Saint-Charles, Québec, Agglomération de Québec, Capitale-Nationale, Québec, G2B 4X4, Canada", "geopy_name": "Beiko" }, "geometry": { "type": "Point", "coordinates": [ -71.353510300001133, 46.834659500002822 ] } },
{ "type": "Feature", "properties": { "element": "node", "id": 1736877430, "name": "CPE Sophie", "amenity": "kindergarten", "Category": "Education", "adresse_geopy": "CPE Sophie, 545, Chemin Sainte-Foy, Montcalm, La Cité-Limoilou, Québec, Agglomération de Québec, Capitale-Nationale, Québec, G1S 2J9, Canada", "geopy_name": "CPE Sophie" }, "geometry": { "type": "Point", "coordinates": [ -71.235623600001148, 46.80220970000282 ] } },
{ "type": "Feature", "properties": { "element": "node", "id": 1741887308, "name": "Esso", "amenity": "fuel", "Category": "Transport", "adresse_geopy": "Esso, 1280, Grande Allée Ouest, Sillery, Sainte-Foy–Sillery–Cap-Rouge, Québec, Agglomération de Québec, Capitale-Nationale, Québec, G1S 1E8, Canada", "geopy_name": "Esso" }, "geometry": { "type": "Point", "coordinates": [ -71.246173900001168, 46.789670600002808 ] } },
{ "type": "Feature", "properties": { "element": "node", "id": 1741887312, "name": "Shell", "amenity": "fuel", "Category": "Transport", "adresse_geopy": "Shell, Boulevard Laurier, Sillery, Sainte-Foy–Sillery–Cap-Rouge, Québec, Agglomération de Québec, Capitale-Nationale, Québec, G1S 1E8, Canada", "geopy_name": "Shell" }, "geometry": { "type": "Point", "coordinates": [ -71.24672460000113, 46.789297800002814 ] } },
{ "type": "Feature", "properties": { "element": "node", "id": 1748183165, "name": "Banque Nationale", "amenity": "bank", "Category": "Financial", "adresse_geopy": "Banque Nationale, Chemin Sainte-Foy, Saint-Sacrement, La Cité-Limoilou, Québec, Agglomération de Québec, Capitale-Nationale, Québec, G1S 2N2, Canada", "geopy_name": "Banque Nationale" }, "geometry": { "type": "Point", "coordinates": [ -71.25503370000115, 46.794145100002794 ] } },
{ "type": "Feature", "properties": { "element": "node", "id": 1748183167, "name": "Desjardins", "amenity": "bank", "Category": "Financial", "adresse_geopy": "Desjardins, Chemin Sainte-Foy, Saint-Sacrement, La Cité-Limoilou, Québec, Agglomération de Québec, Capitale-Nationale, Québec, G1S 2N5, Canada", "geopy_name": "Desjardins" }, "geometry": { "type": "Point", "coordinates": [ -71.254357200001152, 46.794453600002811 ] } },
{ "type": "Feature", "properties": { "element": "node", "id": 1751011401, "name": "BMO", "amenity": "bank", "Category": "Financial", "adresse_geopy": "Banque de Montréal, Chemin Sainte-Foy, Saint-Sacrement, La Cité-Limoilou, Québec, Agglomération de Québec, Capitale-Nationale, Québec, G1S 2N2, Canada", "geopy_name": "BMO" }, "geometry": { "type": "Point", "coordinates": [ -71.254843300001156, 46.794246000002801 ] } },
{ "type": "Feature", "properties": { "element": "node", "id": 1764380462, "name": "Uniprix", "amenity": "pharmacy", "Category": "Health", "adresse_geopy": "Uniprix, Route Jean-Gauvin, Les Sources, Cap-Rouge, Sainte-Foy–Sillery–Cap-Rouge, Québec, Agglomération de Québec, Capitale-Nationale, Québec, G3A 0B6, Canada", "geopy_name": "Uniprix" }, "geometry": { "type": "Point", "coordinates": [ -71.36848240000117, 46.764073600002824 ] } },
{ "type": "Feature", "properties": { "element": "node", "id": 1768923678, "name": "Desjardins", "amenity": "bank", "Category": "Financial", "adresse_geopy": "Desjardins, Avenue Joseph-Casavant, mégacentre Beauport, Saint-Michel, Beauport, Québec, Agglomération de Québec, Capitale-Nationale, Québec, G1C 2K6, Canada", "geopy_name": "Desjardins" }, "geometry": { "type": "Point", "coordinates": [ -71.205051600001156, 46.869556200002812 ] } },
{ "type": "Feature", "properties": { "element": "node", "id": 1768925187, "name": "Scores", "amenity": "restaurant", "Category": "Food", "adresse_geopy": "Scores, Rue Clemenceau, Saint-Michel, Beauport, Québec, Agglomération de Québec, Capitale-Nationale, Québec, G1C 2K6, Canada", "geopy_name": "Scores" }, "geometry": { "type": "Point", "coordinates": [ -71.207039700001133, 46.867879000002802 ] } },
{ "type": "Feature", "properties": { "element": "node", "id": 1784601407, "name": "Desjardins", "amenity": "bank", "Category": "Financial", "adresse_geopy": "Desjardins, Rue des Bienfaits, Neufchâtel-Est–Lebourgneuf, Les Rivières, Québec, Agglomération de Québec, Capitale-Nationale, Québec, G2C 0G3, Canada", "geopy_name": "Desjardins" }, "geometry": { "type": "Point", "coordinates": [ -71.325490200001141, 46.840435000002799 ] } },
{ "type": "Feature", "properties": { "element": "node", "id": 1784601408, "name": "Tim Hortons", "amenity": "cafe", "Category": "Food", "adresse_geopy": "Tim Hortons, Boulevard Robert-Bourassa, Faubourg Le Raphaël, Neufchâtel-Est–Lebourgneuf, Les Rivières, Québec, Agglomération de Québec, Capitale-Nationale, Québec, G2C 0G3, Canada", "geopy_name": "Tim Hortons" }, "geometry": { "type": "Point", "coordinates": [ -71.326650200001154, 46.841412500002789 ] } },
{ "type": "Feature", "properties": { "element": "node", "id": 1784601410, "name": "Subway", "amenity": "fast_food", "Category": "Food", "adresse_geopy": "Subway, 2289, Avenue Chauveau, Neufchâtel-Est–Lebourgneuf, Les Rivières, Québec, Agglomération de Québec, Capitale-Nationale, Québec, G2B 4Y4, Canada", "geopy_name": "Subway" }, "geometry": { "type": "Point", "coordinates": [ -71.325983600001152, 46.840774300002813 ] } },
{ "type": "Feature", "properties": { "element": "node", "id": 1784607142, "name": "Subway", "amenity": "fast_food", "Category": "Food", "adresse_geopy": "Subway, Boulevard de l'Ormière, L'Ormière, Des Châtels, La Haute-Saint-Charles, Québec, Agglomération de Québec, Capitale-Nationale, Québec, G2C 1A3, Canada", "geopy_name": "Subway" }, "geometry": { "type": "Point", "coordinates": [ -71.349442900001165, 46.831186600002802 ] } },
{ "type": "Feature", "properties": { "element": "node", "id": 1788815228, "name": "Resto-Chef Café", "amenity": "restaurant", "Category": "Food", "adresse_geopy": "Resto-Chef Café, Boulevard Valcartier, Quartier de l'Hôpital, Loretteville, La Haute-Saint-Charles, Québec, Agglomération de Québec, Capitale-Nationale, Québec, G2A 2M4, Canada", "geopy_name": "Resto-Chef Café" }, "geometry": { "type": "Point", "coordinates": [ -71.359718000001166, 46.853162600002804 ] } },
{ "type": "Feature", "properties": { "element": "node", "id": 1789314859, "name": "Sakura BBQ Coréen", "amenity": "restaurant", "Category": "Food", "adresse_geopy": "Sakura BBQ Coréen, Boulevard Hochelaga, Saint-Mathieu, Plateau, Sainte-Foy–Sillery–Cap-Rouge, Québec, Agglomération de Québec, Capitale-Nationale, Québec, G1W 4S6, Canada", "geopy_name": "Sakura BBQ Coréen" }, "geometry": { "type": "Point", "coordinates": [ -71.301798800001137, 46.76345100000281 ] } },
{ "type": "Feature", "properties": { "element": "node", "id": 1813784339, "name": "Bibliothèque Champigny", "amenity": "library", "Category": "Public Services", "adresse_geopy": "Bibliothèque Champigny, Rue Félix-Antoine-Savard, Aéroport, Sainte-Foy–Sillery–Cap-Rouge, Québec, Agglomération de Québec, Capitale-Nationale, Québec, G2G 2R2, Canada", "geopy_name": "Bibliothèque Champigny" }, "geometry": { "type": "Point", "coordinates": [ -71.368841000001169, 46.773830300002835 ] } },
{ "type": "Feature", "properties": { "element": "node", "id": 1899342939, "name": "McDonald's", "amenity": "fast_food", "Category": "Food", "adresse_geopy": "McDonald's, Boulevard Wilfrid-Hamel, Les Saules, Duberger–Les Saules, Les Rivières, Québec, Agglomération de Québec, Capitale-Nationale, Québec, G1P 2J4, Canada", "geopy_name": "McDonald's" }, "geometry": { "type": "Point", "coordinates": [ -71.314791000001165, 46.806553500002813 ] } },
{ "type": "Feature", "properties": { "element": "node", "id": 1899342946, "name": "Subway", "amenity": "fast_food", "Category": "Food", "adresse_geopy": "Subway, Boulevard Wilfrid-Hamel, Les Saules, Duberger–Les Saules, Les Rivières, Québec, Agglomération de Québec, Capitale-Nationale, Québec, G1P 2J4, Canada", "geopy_name": "Subway" }, "geometry": { "type": "Point", "coordinates": [ -71.31600380000117, 46.806520700002807 ] } },
{ "type": "Feature", "properties": { "element": "node", "id": 1899402992, "name": "La Fringale Glacée", "amenity": "fast_food", "Category": "Food", "adresse_geopy": "La Fringale Glacée, Boulevard Wilfrid-Hamel, Champigny, Aéroport, Sainte-Foy–Sillery–Cap-Rouge, Québec, Agglomération de Québec, Capitale-Nationale, Québec, G2G 1B8, Canada", "geopy_name": "La Fringale Glacée" }, "geometry": { "type": "Point", "coordinates": [ -71.364986000001167, 46.782638400002817 ] } },
{ "type": "Feature", "properties": { "element": "node", "id": 1907684666, "name": "Irving", "amenity": "fuel", "Category": "Transport", "adresse_geopy": "Irving, Boulevard Père-Lelièvre, Les Saules, Duberger–Les Saules, Les Rivières, Québec, Agglomération de Québec, Capitale-Nationale, Québec, G1P 2X9, Canada", "geopy_name": "Irving" }, "geometry": { "type": "Point", "coordinates": [ -71.310247500001154, 46.812289300002796 ] } },
{ "type": "Feature", "properties": { "element": "node", "id": 1907729311, "name": "Pharmacie Brunet Luc Fortier", "amenity": "pharmacy", "Category": "Health", "adresse_geopy": "Pharmacie Brunet Luc Fortier, 2810, Boulevard Père-Lelièvre, Les Saules, Duberger–Les Saules, Les Rivières, Québec, Agglomération de Québec, Capitale-Nationale, Québec, G1P 2Y1, Canada", "geopy_name": "Pharmacie Brunet Luc Fortier" }, "geometry": { "type": "Point", "coordinates": [ -71.309519500001144, 46.812925700002801 ] } },
{ "type": "Feature", "properties": { "element": "node", "id": 1907763105, "name": "Buffet du Nord", "amenity": "fast_food", "Category": "Food", "adresse_geopy": "Buffet du Nord, 2750, Boulevard Père-Lelièvre, Duberger, Duberger–Les Saules, Les Rivières, Québec, Agglomération de Québec, Capitale-Nationale, Québec, G1P 2X8, Canada", "geopy_name": "Buffet du Nord" }, "geometry": { "type": "Point", "coordinates": [ -71.308160900001141, 46.813041800002814 ] } },
{ "type": "Feature", "properties": { "element": "node", "id": 1907766885, "name": "Restaurant Normandin", "amenity": "restaurant", "Category": "Food", "adresse_geopy": "Restaurant Normandin, 2185, Boulevard Père-Lelièvre, Duberger, Duberger–Les Saules, Les Rivières, Québec, Agglomération de Québec, Capitale-Nationale, Québec, G1P 2X2, Canada", "geopy_name": "Restaurant Normandin" }, "geometry": { "type": "Point", "coordinates": [ -71.296844700001145, 46.811476900002802 ] } },
{ "type": "Feature", "properties": { "element": "node", "id": 1907772689, "name": "Valentine", "amenity": "fast_food", "Category": "Food", "adresse_geopy": "Valentine, 2045, Boulevard Père-Lelièvre, Duberger, Duberger–Les Saules, Les Rivières, Québec, Agglomération de Québec, Capitale-Nationale, Québec, G1P 2W8, Canada", "geopy_name": "Valentine" }, "geometry": { "type": "Point", "coordinates": [ -71.294537500001155, 46.811276500002826 ] } },
{ "type": "Feature", "properties": { "element": "node", "id": 1907776401, "name": "EKO", "amenity": "fuel", "Category": "Transport", "adresse_geopy": "EKO, Boulevard Père-Lelièvre, Duberger, Duberger–Les Saules, Les Rivières, Québec, Agglomération de Québec, Capitale-Nationale, Québec, G1P 2W8, Canada", "geopy_name": "EKO" }, "geometry": { "type": "Point", "coordinates": [ -71.294669400001155, 46.811411700002814 ] } },
{ "type": "Feature", "properties": { "element": "node", "id": 1912931557, "name": "Tim Hortons", "amenity": "cafe", "Category": "Food", "adresse_geopy": "Tim Hortons, 1280, Grande Allée Ouest, Sillery, Sainte-Foy–Sillery–Cap-Rouge, Québec, Agglomération de Québec, Capitale-Nationale, Québec, G1S 1E8, Canada", "geopy_name": "Tim Hortons" }, "geometry": { "type": "Point", "coordinates": [ -71.245974100001149, 46.789832000002804 ] } },
{ "type": "Feature", "properties": { "element": "node", "id": 1914220715, "name": "Banque Nationale", "amenity": "bank", "Category": "Financial", "adresse_geopy": "Banque Nationale, 2300, Boulevard Père-Lelièvre, Duberger, Duberger–Les Saules, Les Rivières, Québec, Agglomération de Québec, Capitale-Nationale, Québec, G1P 2X5, Canada", "geopy_name": "Banque Nationale" }, "geometry": { "type": "Point", "coordinates": [ -71.29866430000115, 46.812293600002803 ] } },
{ "type": "Feature", "properties": { "element": "node", "id": 1914224782, "name": "Desjardins", "amenity": "bank", "Category": "Financial", "adresse_geopy": "Desjardins, 2620, Rue Darveau, Duberger, Duberger–Les Saules, Les Rivières, Québec, Agglomération de Québec, Capitale-Nationale, Québec, G1P 3V5, Canada", "geopy_name": "Desjardins" }, "geometry": { "type": "Point", "coordinates": [ -71.298193400001153, 46.812623100002817 ] } },
{ "type": "Feature", "properties": { "element": "node", "id": 1918609366, "name": "McDonald's", "amenity": "fast_food", "Category": "Food", "adresse_geopy": "McDonald's, Chemin des Quatre-Bourgeois, Saint-Jean-Baptiste-de-la-Salle, Cité-Universitaire, Sainte-Foy–Sillery–Cap-Rouge, Québec, Agglomération de Québec, Capitale-Nationale, Québec, G1V 0G2, Canada", "geopy_name": "McDonald's" }, "geometry": { "type": "Point", "coordinates": [ -71.28685530000115, 46.782881300002806 ] } },
{ "type": "Feature", "properties": { "element": "node", "id": 1927505740, "name": "Les Loupiots", "amenity": "kindergarten", "Category": "Education", "adresse_geopy": "Les Loupiots, 1089, Avenue De Salaberry, Saint-Jean-Baptiste, La Cité-Limoilou, Québec, Agglomération de Québec, Capitale-Nationale, Québec, G1R 2G6, Canada", "geopy_name": "Les Loupiots" }, "geometry": { "type": "Point", "coordinates": [ -71.224372200001156, 46.804345600002826 ] } },
{ "type": "Feature", "properties": { "element": "node", "id": 1941647566, "name": "La p'tite Grenouille Sainte-Foy", "amenity": "bar", "Category": "Food", "adresse_geopy": "La p'tite Grenouille Sainte-Foy, Rue Galvani, Parc industriel Jean-Talon (secteur Sud), Saint-Jean-Baptiste-de-la-Salle, Cité-Universitaire, Sainte-Foy–Sillery–Cap-Rouge, Québec, Agglomération de Québec, Capitale-Nationale, Québec, G1N 4C2, Canada", "geopy_name": "La p'tite Grenouille Sainte-Foy" }, "geometry": { "type": "Point", "coordinates": [ -71.28817980000116, 46.790660200002804 ] } },
{ "type": "Feature", "properties": { "element": "node", "id": 1951829139, "name": "Cora", "amenity": "restaurant", "Category": "Food", "adresse_geopy": "Cora, Boulevard de l'Ormière, Loretteville-Sud, Des Châtels, La Haute-Saint-Charles, Québec, Agglomération de Québec, Capitale-Nationale, Québec, G2B 3J9, Canada", "geopy_name": "Cora" }, "geometry": { "type": "Point", "coordinates": [ -71.356920200001156, 46.836035600002816 ] } },
{ "type": "Feature", "properties": { "element": "node", "id": 1951844270, "name": "Centre de services Loretteville", "amenity": "bank", "Category": "Financial", "adresse_geopy": "Centre de services Loretteville, Rue Racine, Quartier de l'Hôpital, Loretteville, La Haute-Saint-Charles, Québec, Agglomération de Québec, Capitale-Nationale, Québec, G2B 1G3, Canada", "geopy_name": "Centre de services Loretteville" }, "geometry": { "type": "Point", "coordinates": [ -71.367213600001151, 46.844578000002798 ] } },
{ "type": "Feature", "properties": { "element": "node", "id": 1970907259, "name": "Église Évangélique Baptiste de Québec", "amenity": "place_of_worship", "Category": "Religious", "adresse_geopy": "Église Évangélique Baptiste de Québec, Avenue Chauveau, Des Châtels, La Haute-Saint-Charles, Québec, Agglomération de Québec, Capitale-Nationale, Québec, G2B 0S9, Canada", "geopy_name": "Église Évangélique Baptiste de Québec" }, "geometry": { "type": "Point", "coordinates": [ -71.360201300001165, 46.825935100002809 ] } },
{ "type": "Feature", "properties": { "element": "node", "id": 1974022226, "name": "Petro-Canada", "amenity": "fuel", "Category": "Transport", "adresse_geopy": "Petro-Canada, Boulevard Wilfrid-Hamel, Vanier, Les Rivières, Québec, Agglomération de Québec, Capitale-Nationale, Québec, G1L 4W5, Canada", "geopy_name": "Petro-Canada" }, "geometry": { "type": "Point", "coordinates": [ -71.250519900001152, 46.817857400002815 ] } },
{ "type": "Feature", "properties": { "element": "node", "id": 1989855068, "name": "Proxim", "amenity": "pharmacy", "Category": "Health", "adresse_geopy": "Proxim, 3066, Chemin Saint-Louis, Saint-Louis-de-France, Saint-Louis, Sainte-Foy–Sillery–Cap-Rouge, Québec, Agglomération de Québec, Capitale-Nationale, Québec, G1W 1R7, Canada", "geopy_name": "Proxim" }, "geometry": { "type": "Point", "coordinates": [ -71.290551700001146, 46.757578800002804 ] } },
{ "type": "Feature", "properties": { "element": "node", "id": 1989859579, "name": "La Piazzetta", "amenity": "restaurant", "Category": "Food", "adresse_geopy": "La Piazzetta, 3100, Rue De La Forest, Saint-Louis, Sainte-Foy–Sillery–Cap-Rouge, Québec, Agglomération de Québec, Capitale-Nationale, Québec, G1W 1L8, Canada", "geopy_name": "La Piazzetta" }, "geometry": { "type": "Point", "coordinates": [ -71.290774400001169, 46.757792500002822 ] } },
{ "type": "Feature", "properties": { "element": "node", "id": 2011648375, "name": "Restaurant Thai Exotique", "amenity": "restaurant", "Category": "Food", "adresse_geopy": "Restaurant Thai Exotique, Boulevard Henri-Bourassa, Charlesbourg, Des Jésuites, Charlesbourg, Québec, Agglomération de Québec, Capitale-Nationale, Québec, G1H 3B1, Canada", "geopy_name": "Restaurant Thai Exotique" }, "geometry": { "type": "Point", "coordinates": [ -71.24996110000113, 46.851224600002823 ] } },
{ "type": "Feature", "properties": { "element": "node", "id": 2016439314, "name": "Familiprix", "amenity": "pharmacy", "Category": "Health", "adresse_geopy": "Familiprix, Rue de la Faune, Saint-Émile, La Haute-Saint-Charles, Québec, Agglomération de Québec, Capitale-Nationale, Québec, G3E 0C7, Canada", "geopy_name": "Familiprix" }, "geometry": { "type": "Point", "coordinates": [ -71.326226000001157, 46.876605800002814 ] } },
{ "type": "Feature", "properties": { "element": "node", "id": 2022360464, "name": "Le Piolet", "amenity": "restaurant", "Category": "Food", "adresse_geopy": "Le Piolet, Rue Racine, Loretteville, La Haute-Saint-Charles, Québec, Agglomération de Québec, Capitale-Nationale, Québec, G2A 1S9, Canada", "geopy_name": "Le Piolet" }, "geometry": { "type": "Point", "coordinates": [ -71.355852500001163, 46.854116400002802 ] } },
{ "type": "Feature", "properties": { "element": "node", "id": 2024132381, "name": "Casa Grecque", "amenity": "restaurant", "Category": "Food", "adresse_geopy": "Casa Grecque, Boulevard Sainte-Anne, Montmorency, Vieux-Bourg, Beauport, Québec, Agglomération de Québec, Capitale-Nationale, Québec, G1C 2H8, Canada", "geopy_name": "Casa Grecque" }, "geometry": { "type": "Point", "coordinates": [ -71.193442000001156, 46.853264000002824 ] } },
{ "type": "Feature", "properties": { "element": "node", "id": 2028606486, "name": "Brunet Plus", "amenity": "pharmacy", "Category": "Health", "adresse_geopy": "Brunet Plus, Rue de l'Etna, Val-Bélair, La Haute-Saint-Charles, Québec, Agglomération de Québec, Capitale-Nationale, Québec, G3K 2S5, Canada", "geopy_name": "Brunet Plus" }, "geometry": { "type": "Point", "coordinates": [ -71.416540000001163, 46.854589100002805 ] } },
{ "type": "Feature", "properties": { "element": "node", "id": 2029191203, "name": "CLSC de la Jacques-Cartier (Val Bélair)", "amenity": "doctors", "Category": "Health", "adresse_geopy": "CLSC de la Jacques-Cartier (Val Bélair), Rue de l'Etna, Val-Bélair, La Haute-Saint-Charles, Québec, Agglomération de Québec, Capitale-Nationale, Québec, G3K 2S5, Canada", "geopy_name": "CLSC de la Jacques-Cartier (Val Bélair)" }, "geometry": { "type": "Point", "coordinates": [ -71.415956900001163, 46.854987600002801 ] } },
{ "type": "Feature", "properties": { "element": "node", "id": 2041288672, "name": "Caisses Desjardins Sillery - Saint-Louis-de-France", "amenity": "bank", "Category": "Financial", "adresse_geopy": "Caisses Desjardins Sillery - Saint-Louis-de-France, Route de l'Église, Saint-Louis-de-France, Saint-Louis, Sainte-Foy–Sillery–Cap-Rouge, Québec, Agglomération de Québec, Capitale-Nationale, Québec, G1W 3M1, Canada", "geopy_name": "Caisses Desjardins Sillery - Saint-Louis-de-France" }, "geometry": { "type": "Point", "coordinates": [ -71.283162900001145, 46.762996800002817 ] } },
{ "type": "Feature", "properties": { "element": "node", "id": 2041288694, "name": "Familiprix Hébert & Ferlatte", "amenity": "pharmacy", "Category": "Health", "adresse_geopy": "Familiprix Hébert & Ferlatte, Rue Carswell, Saint-Louis-de-France, Saint-Louis, Sainte-Foy–Sillery–Cap-Rouge, Québec, Agglomération de Québec, Capitale-Nationale, Québec, G1W 3P3, Canada", "geopy_name": "Familiprix Hébert & Ferlatte" }, "geometry": { "type": "Point", "coordinates": [ -71.28372860000114, 46.762676700002814 ] } },
{ "type": "Feature", "properties": { "element": "node", "id": 2041366351, "name": "Ashton", "amenity": "fast_food", "Category": "Food", "adresse_geopy": "Ashton, Rue du Sieur-D'Argenteuil, Saint-Louis-de-France, Saint-Louis, Sainte-Foy–Sillery–Cap-Rouge, Québec, Agglomération de Québec, Capitale-Nationale, Québec, G1W 3P3, Canada", "geopy_name": "Ashton" }, "geometry": { "type": "Point", "coordinates": [ -71.283381800001138, 46.761663300002823 ] } },
{ "type": "Feature", "properties": { "element": "node", "id": 2041366388, "name": "Eko", "amenity": "fuel", "Category": "Transport", "adresse_geopy": "Eko, Chemin Saint-Louis, Saint-Louis-de-France, Saint-Louis, Sainte-Foy–Sillery–Cap-Rouge, Québec, Agglomération de Québec, Capitale-Nationale, Québec, G1W 1P9, Canada", "geopy_name": "Eko" }, "geometry": { "type": "Point", "coordinates": [ -71.284184600001154, 46.761625100002817 ] } },
{ "type": "Feature", "properties": { "element": "node", "id": 2041392512, "name": "Restaurant Le Galopin", "amenity": "restaurant", "Category": "Food", "adresse_geopy": "Restaurant Le Galopin, Chemin Saint-Louis, Saint-Louis, Sainte-Foy–Sillery–Cap-Rouge, Québec, Agglomération de Québec, Capitale-Nationale, Québec, G1W 1R8, Canada", "geopy_name": "Restaurant Le Galopin" }, "geometry": { "type": "Point", "coordinates": [ -71.293722400001144, 46.756517000002823 ] } },
{ "type": "Feature", "properties": { "element": "node", "id": 2045544053, "name": "Postes Canada", "amenity": "post_office", "Category": "Public Services", "adresse_geopy": "Postes Canada, Rue Carswell, Saint-Louis-de-France, Saint-Louis, Sainte-Foy–Sillery–Cap-Rouge, Québec, Agglomération de Québec, Capitale-Nationale, Québec, G1W 3P3, Canada", "geopy_name": "Postes Canada" }, "geometry": { "type": "Point", "coordinates": [ -71.283767600001141, 46.76270920000281 ] } },
{ "type": "Feature", "properties": { "element": "node", "id": 2045544055, "name": "Le manoir", "amenity": "restaurant", "Category": "Food", "adresse_geopy": "Le manoir, Chemin Saint-Louis, Saint-Louis-de-France, Saint-Louis, Sainte-Foy–Sillery–Cap-Rouge, Québec, Agglomération de Québec, Capitale-Nationale, Québec, G1W 1P9, Canada", "geopy_name": "Le manoir" }, "geometry": { "type": "Point", "coordinates": [ -71.290823000001154, 46.756911800002811 ] } },
{ "type": "Feature", "properties": { "element": "node", "id": 2052364057, "name": "RBC Banque Royale", "amenity": "bank", "Category": "Financial", "adresse_geopy": "RBC Banque Royale, Route Jean-Gauvin, Les Sources, Cap-Rouge, Sainte-Foy–Sillery–Cap-Rouge, Québec, Agglomération de Québec, Capitale-Nationale, Québec, G1X 4M4, Canada", "geopy_name": "RBC Banque Royale" }, "geometry": { "type": "Point", "coordinates": [ -71.367984000001158, 46.763226400002814 ] } },
{ "type": "Feature", "properties": { "element": "node", "id": 2131739469, "name": "L'espace McChef", "amenity": "restaurant", "Category": "Food", "adresse_geopy": "L'espace McChef, Rue Dalhousie, Vieux-Québec, Vieux-Québec–Cap-Blanc–Colline-Parlementaire, La Cité-Limoilou, Québec, Agglomération de Québec, Capitale-Nationale, Québec, G1K 8R2, Canada", "geopy_name": "L'espace McChef" }, "geometry": { "type": "Point", "coordinates": [ -71.201776400001151, 46.814422000002821 ] } },
{ "type": "Feature", "properties": { "element": "node", "id": 2133214273, "name": "Desjardins", "amenity": "bank", "Category": "Financial", "adresse_geopy": "Desjardins, 1211, Boulevard Louis-XIV, Des Jésuites, Charlesbourg, Québec, Agglomération de Québec, Capitale-Nationale, Québec, G2L 1M2, Canada", "geopy_name": "Desjardins" }, "geometry": { "type": "Point", "coordinates": [ -71.256447500001158, 46.871097200002801 ] } },
{ "type": "Feature", "properties": { "element": "node", "id": 2133214274, "name": "Chez Harry", "amenity": "restaurant", "Category": "Food", "adresse_geopy": "Chez Harry, Avenue de Lombardie, Des Jésuites, Charlesbourg, Québec, Agglomération de Québec, Capitale-Nationale, Québec, G2L 1M2, Canada", "geopy_name": "Chez Harry" }, "geometry": { "type": "Point", "coordinates": [ -71.25620150000114, 46.869634500002789 ] } },
{ "type": "Feature", "properties": { "element": "node", "id": 2133214277, "name": "Uniprix", "amenity": "pharmacy", "Category": "Health", "adresse_geopy": "Uniprix, Rue Brossier, Des Jésuites, Charlesbourg, Québec, Agglomération de Québec, Capitale-Nationale, Québec, G2L 1M2, Canada", "geopy_name": "Uniprix" }, "geometry": { "type": "Point", "coordinates": [ -71.256751400001164, 46.869312300002804 ] } },
{ "type": "Feature", "properties": { "element": "node", "id": 2181586079, "name": "Pharmacie Jean Coutu", "amenity": "pharmacy", "Category": "Health", "adresse_geopy": "Pharmacie Jean Coutu, 3280, Chemin Sainte-Foy, Le Plateau, Plateau, Sainte-Foy–Sillery–Cap-Rouge, Québec, Agglomération de Québec, Capitale-Nationale, Québec, G1X 3C2, Canada", "geopy_name": "Pharmacie Jean Coutu" }, "geometry": { "type": "Point", "coordinates": [ -71.319335800001141, 46.771009200002815 ] } },
{ "type": "Feature", "properties": { "element": "node", "id": 2181586106, "name": "Casa Grecque", "amenity": "restaurant", "Category": "Food", "adresse_geopy": "Casa Grecque, Avenue Fortelles, Le Plateau, Plateau, Sainte-Foy–Sillery–Cap-Rouge, Québec, Agglomération de Québec, Capitale-Nationale, Québec, G1X 3C2, Canada", "geopy_name": "Casa Grecque" }, "geometry": { "type": "Point", "coordinates": [ -71.318623900001157, 46.769803700002811 ] } },
{ "type": "Feature", "properties": { "element": "node", "id": 2181586157, "name": "Banque de Montréal", "amenity": "bank", "Category": "Financial", "adresse_geopy": "Banque de Montréal, Avenue Fortelles, Le Plateau, Plateau, Sainte-Foy–Sillery–Cap-Rouge, Québec, Agglomération de Québec, Capitale-Nationale, Québec, G1X 3C2, Canada", "geopy_name": "Banque de Montréal" }, "geometry": { "type": "Point", "coordinates": [ -71.318313600001147, 46.770061500002818 ] } },
{ "type": "Feature", "properties": { "element": "node", "id": 2194800754, "name": "Ashton", "amenity": "fast_food", "Category": "Food", "adresse_geopy": "Ashton, Avenue Jules-Verne, Champigny, Aéroport, Sainte-Foy–Sillery–Cap-Rouge, Québec, Agglomération de Québec, Capitale-Nationale, Québec, G1X 0E4, Canada", "geopy_name": "Ashton" }, "geometry": { "type": "Point", "coordinates": [ -71.354288500001161, 46.778095300002811 ] } },
{ "type": "Feature", "properties": { "element": "node", "id": 2196688783, "name": "Pharmaprix", "amenity": "pharmacy", "Category": "Health", "adresse_geopy": "Pharmaprix, Rue Provancher, Cap-Rouge, Sainte-Foy–Sillery–Cap-Rouge, Québec, Agglomération de Québec, Capitale-Nationale, Québec, G1Y 3T4, Canada", "geopy_name": "Pharmaprix" },